stop_id,stop_code,stop_name,stop_lat,stop_lon,stop_url,location_type,parent_station
5,"10976","NW 9th St & NW Maxine Ave",44.597464,-123.250176,"http://www.corvallistransit.com/RTT/Public/Transit.aspx?page=text&plt=5",,
6,"10995","NW 9th St & NW Sequoia Ave",44.590970,-123.253828,"http://www.corvallistransit.com/RTT/Public/Transit.aspx?page=text&plt=6",,
7,"11004","NW 9th St and Circle Blvd",44.588316,-123.255316,"http://www.corvallistransit.com/RTT/Public/Transit.aspx?page=text&plt=7",,
8,"11015","NW 9th St & NW Hobart Ave",44.586073,-123.256570,"http://www.corvallistransit.com/RTT/Public/Transit.aspx?page=text&plt=8",,
10,"10694","NW 9th St & NW Beca Ave",44.578507,-123.260741,"http://www.corvallistransit.com/RTT/Public/Transit.aspx?page=text&plt=10",,
11,"10706","NW 9th St & NW Buchanan Ave",44.574996,-123.262682,"http://www.corvallistransit.com/RTT/Public/Transit.aspx?page=text&plt=11",,
12,"10710","NW 9th St & NW Van Buren Ave",44.567685,-123.266518,"http://www.corvallistransit.com/RTT/Public/Transit.aspx?page=text&plt=12",,
13,"10723","SW 9th St & SW Madison Ave",44.565197,-123.267608,"http://www.corvallistransit.com/RTT/Public/Transit.aspx?page=text&plt=13",,
16,"10752","NW 9th St & NW Fremont Ave",44.571702,-123.264251,"http://www.corvallistransit.com/RTT/Public/Transit.aspx?page=text&plt=16",,
17,"10768","NW 9th St & NW Reiman St",44.573202,-123.263369,"http://www.corvallistransit.com/RTT/Public/Transit.aspx?page=text&plt=17",,
19,"10781","NW 9th St & NW Cornell Ave",44.576814,-123.261409,"http://www.corvallistransit.com/RTT/Public/Transit.aspx?page=text&plt=19",,
20,"10799","NW 9th St & NW Sequoia Ave",44.591552,-123.253230,"http://www.corvallistransit.com/RTT/Public/Transit.aspx?page=text&plt=20",,
21,"10809","NW 9th St & NW Walnut Blvd",44.593688,-123.252329,"http://www.corvallistransit.com/RTT/Public/Transit.aspx?page=text&plt=21",,
23,"10821","NW Walnut Blvd & NW Satinwood St",44.593986,-123.258341,"http://www.corvallistransit.com/RTT/Public/Transit.aspx?page=text&plt=23",,
27,"10845","NW Walnut Blvd & NW Professional Dr",44.592447,-123.277022,"http://www.corvallistransit.com/RTT/Public/Transit.aspx?page=text&plt=27",,
28,"10850","NW Walnut Blvd & NW 25th St",44.593183,-123.280419,"http://www.corvallistransit.com/RTT/Public/Transit.aspx?page=text&plt=28",,
29,"10660","NW Walnut Blvd & NW 29th St",44.593356,-123.285585,"http://www.corvallistransit.com/RTT/Public/Transit.aspx?page=text&plt=29",,
30,"10656","NW Walnut Blvd & Timberhill Townhouses",44.593248,-123.289959,"http://www.corvallistransit.com/RTT/Public/Transit.aspx?page=text&plt=30",,
31,"10641","NW Walnut Blvd & NW Aspen St",44.593246,-123.294856,"http://www.corvallistransit.com/RTT/Public/Transit.aspx?page=text&plt=31",,
32,"10639","NW Walnut Blvd & NW Princess St",44.593511,-123.299375,"http://www.corvallistransit.com/RTT/Public/Transit.aspx?page=text&plt=32",,
33,"10570","NW Walnut Blvd & NW Witham Hill Dr",44.593801,-123.301389,"http://www.corvallistransit.com/RTT/Public/Transit.aspx?page=text&plt=33",,
34,"10558","NW Walnut Blvd & NW Princess St",44.593306,-123.299204,"http://www.corvallistransit.com/RTT/Public/Transit.aspx?page=text&plt=34",,
35,"10625","NW Walnut Blvd & NW Walnut Pl",44.593101,-123.296064,"http://www.corvallistransit.com/RTT/Public/Transit.aspx?page=text&plt=35",,
36,"10618","NW Walnut Blvd & NW Aspen St",44.593091,-123.293597,"http://www.corvallistransit.com/RTT/Public/Transit.aspx?page=text&plt=36",,
37,"10602","NW Walnut Blvd & Timberhill Townhouses",44.593132,-123.289440,"http://www.corvallistransit.com/RTT/Public/Transit.aspx?page=text&plt=37",,
38,"10591","NW Walnut Blvd & Timberhill Townhouses",44.593192,-123.285541,"http://www.corvallistransit.com/RTT/Public/Transit.aspx?page=text&plt=38",,
39,"10543","NW Walnut Blvd & NW 29th St",44.593026,-123.282757,"http://www.corvallistransit.com/RTT/Public/Transit.aspx?page=text&plt=39",,
40,"10536","NW Walnut Blvd & NW 25th St",44.592548,-123.278259,"http://www.corvallistransit.com/RTT/Public/Transit.aspx?page=text&plt=40",,
41,"10527","NW Walnut Blvd & NW Kings Blvd",44.592228,-123.275746,"http://www.corvallistransit.com/RTT/Public/Transit.aspx?page=text&plt=41",,
44,"10504","NW Walnut Blvd & NW Oak Ave",44.593500,-123.260631,"http://www.corvallistransit.com/RTT/Public/Transit.aspx?page=text&plt=44",,
45,"10493","NW Walnut Blvd & NW Satinwood St",44.593951,-123.256354,"http://www.corvallistransit.com/RTT/Public/Transit.aspx?page=text&plt=45",,
46,"10486","NW Walnut Blvd & NW 9th St",44.593935,-123.252519,"http://www.corvallistransit.com/RTT/Public/Transit.aspx?page=text&plt=46",,
47,"10472","Northeast Walnut Blvd & NE Jack London St",44.593013,-123.246541,"http://www.corvallistransit.com/RTT/Public/Transit.aspx?page=text&plt=47",,
49,"11350","NW Highland Dr & NW Circle Blvd",44.589050,-123.262478,"http://www.corvallistransit.com/RTT/Public/Transit.aspx?page=text&plt=49",,
50,"11345","NW Highland Dr & NW Sequoia Ave",44.591269,-123.262477,"http://www.corvallistransit.com/RTT/Public/Transit.aspx?page=text&plt=50",,
51,"11332","NW Highland Dr & NW Oak Ave",44.592770,-123.262480,"http://www.corvallistransit.com/RTT/Public/Transit.aspx?page=text&plt=51",,
57,"11275","NW Highland Dr & NW Walnut Blvd",44.593393,-123.262659,"http://www.corvallistransit.com/RTT/Public/Transit.aspx?page=text&plt=57",,
58,"11268","NW Highland Dr & NW Sycamore Ave",44.589573,-123.262658,"http://www.corvallistransit.com/RTT/Public/Transit.aspx?page=text&plt=58",,
59,"11252","NW Highland Dr & NW Spruce Ave",44.587013,-123.262651,"http://www.corvallistransit.com/RTT/Public/Transit.aspx?page=text&plt=59",,
60,"11247","NW Highland Dr & NW Cleveland Ave",44.585611,-123.262654,"http://www.corvallistransit.com/RTT/Public/Transit.aspx?page=text&plt=60",,
62,"11223","NW Highland Dr & NW Hayes Ave",44.581754,-123.262476,"http://www.corvallistransit.com/RTT/Public/Transit.aspx?page=text&plt=62",,
63,"11210","NW Highland Dr & NW Garfield Ave",44.583402,-123.262473,"http://www.corvallistransit.com/RTT/Public/Transit.aspx?page=text&plt=63",,
64,"11206","NW Highland Dr & NW Cleveland Ave",44.586091,-123.262482,"http://www.corvallistransit.com/RTT/Public/Transit.aspx?page=text&plt=64",,
65,"11193","NW Highland Dr & NW Spruce Ave",44.587650,-123.262486,"http://www.corvallistransit.com/RTT/Public/Transit.aspx?page=text&plt=65",,
66,"11186","NW Circle Blvd & NW Highland Dr",44.588670,-123.262097,"http://www.corvallistransit.com/RTT/Public/Transit.aspx?page=text&plt=66",,
67,"11172","NW Circle Blvd & NW Janssen St",44.588634,-123.258510,"http://www.corvallistransit.com/RTT/Public/Transit.aspx?page=text&plt=67",,
68,"11164","NW Circle Blvd",44.588709,-123.256298,"http://www.corvallistransit.com/RTT/Public/Transit.aspx?page=text&plt=68",,
69,"11070","Northeast Circle Blvd & Capri Villa Mobile Park",44.588798,-123.249966,"http://www.corvallistransit.com/RTT/Public/Transit.aspx?page=text&plt=69",,
70,"11062","Northeast Circle Blvd & NE Jack London St",44.588834,-123.247225,"http://www.corvallistransit.com/RTT/Public/Transit.aspx?page=text&plt=70",,
71,"11058","Northeast Circle Blvd & NE Belvue St",44.589010,-123.248290,"http://www.corvallistransit.com/RTT/Public/Transit.aspx?page=text&plt=71",,
72,"11043","Northeast Circle Blvd & NE Four Acre St",44.588950,-123.251571,"http://www.corvallistransit.com/RTT/Public/Transit.aspx?page=text&plt=72",,
73,"11036","Circle & 9th",44.588915,-123.255250,"http://www.corvallistransit.com/RTT/Public/Transit.aspx?page=text&plt=73",,
74,"11027","NW Circle Blvd & NW Janssen St",44.588791,-123.258958,"http://www.corvallistransit.com/RTT/Public/Transit.aspx?page=text&plt=74",,
75,"11155","NW Circle Blvd & NW 11th St",44.588811,-123.264557,"http://www.corvallistransit.com/RTT/Public/Transit.aspx?page=text&plt=75",,
76,"11140","NW Circle Blvd & NW 13th St",44.588761,-123.267550,"http://www.corvallistransit.com/RTT/Public/Transit.aspx?page=text&plt=76",,
77,"11138","NW Circle Blvd & NW 17th St",44.587508,-123.272760,"http://www.corvallistransit.com/RTT/Public/Transit.aspx?page=text&plt=77",,
82,"11089","NW Circle Blvd & NW Kings Blvd",44.586261,-123.275381,"http://www.corvallistransit.com/RTT/Public/Transit.aspx?page=text&plt=82",,
83,"12669","NW Circle Blvd & NW 17th St",44.587811,-123.271872,"http://www.corvallistransit.com/RTT/Public/Transit.aspx?page=text&plt=83",,
84,"12653","NW Circle Blvd & NW Garryanna St",44.588581,-123.269012,"http://www.corvallistransit.com/RTT/Public/Transit.aspx?page=text&plt=84",,
85,"12648","NW Circle Blvd & NW 11th St",44.588646,-123.263924,"http://www.corvallistransit.com/RTT/Public/Transit.aspx?page=text&plt=85",,
86,"12630","NW 29th St & NW Circle Blvd",44.586166,-123.283219,"http://www.corvallistransit.com/RTT/Public/Transit.aspx?page=text&plt=86",,
87,"12624","NW 29th St & NW Garfield Ave",44.582792,-123.283196,"http://www.corvallistransit.com/RTT/Public/Transit.aspx?page=text&plt=87",,
89,"12611","NW 29th St & NW Grant Ave",44.578994,-123.283154,"http://www.corvallistransit.com/RTT/Public/Transit.aspx?page=text&plt=89",,
90,"12607","NW 29th St & NW Lincoln Ave",44.577281,-123.283217,"http://www.corvallistransit.com/RTT/Public/Transit.aspx?page=text&plt=90",,
91,"12598","NW 29th St & NW Fillmore Ave",44.575350,-123.283337,"http://www.corvallistransit.com/RTT/Public/Transit.aspx?page=text&plt=91",,
92,"12579","NW 29th St & NW Tyler Ave",44.572410,-123.283495,"http://www.corvallistransit.com/RTT/Public/Transit.aspx?page=text&plt=92",,
93,"12431","SW 26th St & SW A Ave",44.559286,-123.279519,"http://www.corvallistransit.com/RTT/Public/Transit.aspx?page=text&plt=93",,
95,"12695","SW 26th St & SW Jefferson Way",44.564856,-123.279909,"http://www.corvallistransit.com/RTT/Public/Transit.aspx?page=text&plt=95",,
96,"12703","SW 26th St & SW Campus Way",44.566970,-123.279902,"http://www.corvallistransit.com/RTT/Public/Transit.aspx?page=text&plt=96",,
97,"12682","NW 29th St & NW Tyler Ave",44.573203,-123.283324,"http://www.corvallistransit.com/RTT/Public/Transit.aspx?page=text&plt=97",,
98,"12676","NW 29th St & NW Fillmore Ave",44.575780,-123.283191,"http://www.corvallistransit.com/RTT/Public/Transit.aspx?page=text&plt=98",,
99,"12567","NW 29th St & NW Grant Ave",44.579052,-123.282993,"http://www.corvallistransit.com/RTT/Public/Transit.aspx?page=text&plt=99",,
100,"12551","NW 29th St & NW Mulkey Ave",44.580953,-123.283013,"http://www.corvallistransit.com/RTT/Public/Transit.aspx?page=text&plt=100",,
101,"12546","NW 29th St & NW Garfield Ave",44.583375,-123.283031,"http://www.corvallistransit.com/RTT/Public/Transit.aspx?page=text&plt=101",,
105,"10562","Hewlett-Packard",44.584998,-123.243677,"http://www.corvallistransit.com/RTT/Public/Transit.aspx?page=text&plt=105",,
113,"12788","NW Buchanan Ave & NW 9th St",44.575300,-123.261317,"http://www.corvallistransit.com/RTT/Public/Transit.aspx?page=text&plt=113",,
114,"12790","NW Buchanan Ave & NW 9th St",44.575187,-123.260486,"http://www.corvallistransit.com/RTT/Public/Transit.aspx?page=text&plt=114",,
115,"12800","NW 5th St & NW Buchanan Ave",44.573099,-123.258945,"http://www.corvallistransit.com/RTT/Public/Transit.aspx?page=text&plt=115",,
117,"12828","NW 5th St & NW Polk Ave",44.570076,-123.260279,"http://www.corvallistransit.com/RTT/Public/Transit.aspx?page=text&plt=117",,
118,"12844","NW 5th St & NW Harrison Blvd",44.568167,-123.261274,"http://www.corvallistransit.com/RTT/Public/Transit.aspx?page=text&plt=118",,
119,"12837","NW 5th St & NW Harrison Blvd",44.568253,-123.261375,"http://www.corvallistransit.com/RTT/Public/Transit.aspx?page=text&plt=119",,
120,"12859","SW 4th St & SW Washington Ave",44.560927,-123.264000,"http://www.corvallistransit.com/RTT/Public/Transit.aspx?page=text&plt=120",,
121,"12863","SW 4th St & SW Western Blvd",44.559444,-123.264720,"http://www.corvallistransit.com/RTT/Public/Transit.aspx?page=text&plt=121",,
122,"12994","SW 3rd St & SW Twin Oaks Cir",44.553748,-123.265108,"http://www.corvallistransit.com/RTT/Public/Transit.aspx?page=text&plt=122",,
123,"13001","SW 3rd St & SW Avery Ave",44.551572,-123.265346,"http://www.corvallistransit.com/RTT/Public/Transit.aspx?page=text&plt=123",,
125,"13017","SW 3rd St & SW Cummings Ave",44.548513,-123.265683,"http://www.corvallistransit.com/RTT/Public/Transit.aspx?page=text&plt=125",,
126,"12885","SW 3rd St & SE Mayberry Ave",44.546678,-123.265888,"http://www.corvallistransit.com/RTT/Public/Transit.aspx?page=text&plt=126",,
127,"12892","SW 3rd St & SE Alexander Ave",44.544777,-123.266088,"http://www.corvallistransit.com/RTT/Public/Transit.aspx?page=text&plt=127",,
128,"12902","SW 3rd St & SE Richland Ave",44.541733,-123.266311,"http://www.corvallistransit.com/RTT/Public/Transit.aspx?page=text&plt=128",,
129,"12925","SE Rivergreen Ave & SE Villa Dr",44.531118,-123.265798,"http://www.corvallistransit.com/RTT/Public/Transit.aspx?page=text&plt=129",,
130,"12939","SE Rivergreen Ave & Mountain View Apartments",44.530912,-123.258879,"http://www.corvallistransit.com/RTT/Public/Transit.aspx?page=text&plt=130",,
131,"12941","SE Rivergreen Ave & SE Hathaway Dr",44.531135,-123.262674,"http://www.corvallistransit.com/RTT/Public/Transit.aspx?page=text&plt=131",,
132,"12956","SE Midvale Dr & SE Brookside Way",44.531355,-123.256875,"http://www.corvallistransit.com/RTT/Public/Transit.aspx?page=text&plt=132",,
133,"12960","SE Midvale Dr & Mountain View Apartments",44.533170,-123.256713,"http://www.corvallistransit.com/RTT/Public/Transit.aspx?page=text&plt=133",,
136,"13029","SE Goodnight Ave & SE Goodpark St",44.536727,-123.258798,"http://www.corvallistransit.com/RTT/Public/Transit.aspx?page=text&plt=136",,
137,"13038","SE Goodnight Ave & Summerset Vlg",44.536700,-123.262142,"http://www.corvallistransit.com/RTT/Public/Transit.aspx?page=text&plt=137",,
138,"13040","SE Goodnight Ave & SE Glenn St",44.536666,-123.264981,"http://www.corvallistransit.com/RTT/Public/Transit.aspx?page=text&plt=138",,
139,"13055","SE Park Ave & SE Glenn St",44.538561,-123.265586,"http://www.corvallistransit.com/RTT/Public/Transit.aspx?page=text&plt=139",,
140,"12034","SE Park Ave & SE Park Pl",44.538629,-123.260800,"http://www.corvallistransit.com/RTT/Public/Transit.aspx?page=text&plt=140",,
141,"12023","SE Ryan St & SE Powell Ave",44.540802,-123.258551,"http://www.corvallistransit.com/RTT/Public/Transit.aspx?page=text&plt=141",,
142,"12010","SE Ryan St & SE Richland Ave",44.542724,-123.258554,"http://www.corvallistransit.com/RTT/Public/Transit.aspx?page=text&plt=142",,
143,"12006","SE Ryan St & SE Alexander Ave",44.545017,-123.258551,"http://www.corvallistransit.com/RTT/Public/Transit.aspx?page=text&plt=143",,
145,"11983","SE Bethel St & SE Lilly Ave",44.548035,-123.258625,"http://www.corvallistransit.com/RTT/Public/Transit.aspx?page=text&plt=145",,
147,"11965","SE Crystal Lake Dr & SE Bethel St",44.552075,-123.258594,"http://www.corvallistransit.com/RTT/Public/Transit.aspx?page=text&plt=147",,
148,"11954","SW 3rd St & SW Twin Oaks Cir",44.553769,-123.264814,"http://www.corvallistransit.com/RTT/Public/Transit.aspx?page=text&plt=148",,
149,"11949","SW Western Blvd & SW 4th St",44.559837,-123.264712,"http://www.corvallistransit.com/RTT/Public/Transit.aspx?page=text&plt=149",,
150,"11931","SW Western Blvd & SW 8th St",44.560468,-123.268377,"http://www.corvallistransit.com/RTT/Public/Transit.aspx?page=text&plt=150",,
152,"11912","SW Western Blvd & SW 16th St",44.559789,-123.275398,"http://www.corvallistransit.com/RTT/Public/Transit.aspx?page=text&plt=152",,
153,"11908","SW Western Blvd & SW 26th St",44.558459,-123.278780,"http://www.corvallistransit.com/RTT/Public/Transit.aspx?page=text&plt=153",,
154,"11898","SW Western Blvd & SW Grove St",44.557132,-123.281619,"http://www.corvallistransit.com/RTT/Public/Transit.aspx?page=text&plt=154",,
156,"11879","SW Western Blvd & SW Poplar Pl",44.556926,-123.285912,"http://www.corvallistransit.com/RTT/Public/Transit.aspx?page=text&plt=156",,
157,"11867","SW Western Blvd & SW 35th St",44.557009,-123.290309,"http://www.corvallistransit.com/RTT/Public/Transit.aspx?page=text&plt=157",,
158,"11851","SW Western Blvd & SW Ivy Pl",44.556616,-123.293659,"http://www.corvallistransit.com/RTT/Public/Transit.aspx?page=text&plt=158",,
162,"11814","SW Country Club Dr & SW Country Club Pl",44.548332,-123.292524,"http://www.corvallistransit.com/RTT/Public/Transit.aspx?page=text&plt=162",,
163,"11805","SW 35th St & SW Knollbrook Ave",44.548947,-123.289570,"http://www.corvallistransit.com/RTT/Public/Transit.aspx?page=text&plt=163",,
164,"11795","SW 35th St & SW Birdie Dr",44.552548,-123.289506,"http://www.corvallistransit.com/RTT/Public/Transit.aspx?page=text&plt=164",,
165,"11782","SW 35th St & SW Hil-Wood Pl",44.555354,-123.289544,"http://www.corvallistransit.com/RTT/Public/Transit.aspx?page=text&plt=165",,
166,"11776","SW Western Blvd & SW Hillside Dr",44.556533,-123.293605,"http://www.corvallistransit.com/RTT/Public/Transit.aspx?page=text&plt=166",,
167,"11769","SW Western Blvd & SW 35th St",44.556841,-123.289208,"http://www.corvallistransit.com/RTT/Public/Transit.aspx?page=text&plt=167",,
169,"11748","SW Western Blvd & SW Grove St",44.556812,-123.282723,"http://www.corvallistransit.com/RTT/Public/Transit.aspx?page=text&plt=169",,
171,"11724","NW Satinwood St",44.595094,-123.257512,"http://www.corvallistransit.com/RTT/Public/Transit.aspx?page=text&plt=171",,
173,"11707","NW Satinwood St & NW Maxine Cir",44.597604,-123.257531,"http://www.corvallistransit.com/RTT/Public/Transit.aspx?page=text&plt=173",,
175,"13381","NW Satinwood St & NW Maxine Cir",44.601218,-123.257539,"http://www.corvallistransit.com/RTT/Public/Transit.aspx?page=text&plt=175",,
176,"13375","NW Elks Dr & NW Coronado St",44.601313,-123.254593,"http://www.corvallistransit.com/RTT/Public/Transit.aspx?page=text&plt=176",,
181,"13310","NW Elks Dr & NW Samaritan Dr",44.600861,-123.250451,"http://www.corvallistransit.com/RTT/Public/Transit.aspx?page=text&plt=181",,
182,"10969","Corvallis Clinic",44.602346,-123.255472,"http://www.corvallistransit.com/RTT/Public/Transit.aspx?page=text&plt=182",,
183,"12918","SW 3rd St & SE Park Ave",44.539387,-123.266629,"http://www.corvallistransit.com/RTT/Public/Transit.aspx?page=text&plt=183",,
184,"13306","NW Rolling Green Dr & NW Walnut Blvd",44.592559,-123.271576,"http://www.corvallistransit.com/RTT/Public/Transit.aspx?page=text&plt=184",,
185,"13296","NW Rolling Green Dr & NW Forestgreen Ave",44.590794,-123.272613,"http://www.corvallistransit.com/RTT/Public/Transit.aspx?page=text&plt=185",,
189,"13254","SW Jefferson Ave & SW 8th St",44.563880,-123.267579,"http://www.corvallistransit.com/RTT/Public/Transit.aspx?page=text&plt=189",,
190,"13231","SW Jefferson Ave & SW 11th St",44.564541,-123.271377,"http://www.corvallistransit.com/RTT/Public/Transit.aspx?page=text&plt=190",,
192,"13212","SW 15th St & SW Jefferson Ave",44.563867,-123.274069,"http://www.corvallistransit.com/RTT/Public/Transit.aspx?page=text&plt=192",,
193,"13220","SW 15th St & SW Jefferson Way",44.564021,-123.274190,"http://www.corvallistransit.com/RTT/Public/Transit.aspx?page=text&plt=193",,
195,"13190","SW 15th St & SW Washington Way",44.561465,-123.274381,"http://www.corvallistransit.com/RTT/Public/Transit.aspx?page=text&plt=195",,
196,"13188","SW 15th St & SW Western Blvd",44.560326,-123.274016,"http://www.corvallistransit.com/RTT/Public/Transit.aspx?page=text&plt=196",,
197,"13174","SW Philomath Blvd & SW 47th St",44.553700,-123.303081,"http://www.corvallistransit.com/RTT/Public/Transit.aspx?page=text&plt=197",,
199,"13157","SW Philomath Blvd & SW 53rd St",44.550999,-123.311274,"http://www.corvallistransit.com/RTT/Public/Transit.aspx?page=text&plt=199",,
200,"13142","SW Philomath Blvd & SW Blueberry Dr",44.551661,-123.309140,"http://www.corvallistransit.com/RTT/Public/Transit.aspx?page=text&plt=200",,
201,"13135","SW Technology Loop & SW Research Way",44.551868,-123.306587,"http://www.corvallistransit.com/RTT/Public/Transit.aspx?page=text&plt=201",,
202,"13126","SW Philomath Blvd & SW Timian St",44.552842,-123.305333,"http://www.corvallistransit.com/RTT/Public/Transit.aspx?page=text&plt=202",,
203,"13119","SW Philomath Blvd",44.554259,-123.300660,"http://www.corvallistransit.com/RTT/Public/Transit.aspx?page=text&plt=203",,
204,"13103","NW Forestgreen Ave & NW 17th St",44.590073,-123.272763,"http://www.corvallistransit.com/RTT/Public/Transit.aspx?page=text&plt=204",,
205,"13093","Northeast Conser St & NE Seavy Ave",44.591880,-123.242130,"http://www.corvallistransit.com/RTT/Public/Transit.aspx?page=text&plt=205",,
206,"13086","Northeast  Conser St & NE Jasper St",44.593065,-123.240216,"http://www.corvallistransit.com/RTT/Public/Transit.aspx?page=text&plt=206",,
207,"13072","Northeast Conser St & NE Kirsten Pl",44.594441,-123.237398,"http://www.corvallistransit.com/RTT/Public/Transit.aspx?page=text&plt=207",,
208,"13064","Northeast  Conser St",44.596279,-123.236819,"http://www.corvallistransit.com/RTT/Public/Transit.aspx?page=text&plt=208",,
209,"13732","Northeast Conser St & NE Burke Pl",44.597239,-123.234437,"http://www.corvallistransit.com/RTT/Public/Transit.aspx?page=text&plt=209",,
210,"13721","NW 5th St & NW Buchanan Ave",44.572679,-123.258961,"http://www.corvallistransit.com/RTT/Public/Transit.aspx?page=text&plt=210",,
211,"13713","NW 10th St & NW Buchanan Ave",44.576052,-123.263304,"http://www.corvallistransit.com/RTT/Public/Transit.aspx?page=text&plt=211",,
212,"13709","NW 10th St & NW Beca Ave",44.577350,-123.262558,"http://www.corvallistransit.com/RTT/Public/Transit.aspx?page=text&plt=212",,
214,"13685","NW 10th St & NW Grant Ave",44.579204,-123.262492,"http://www.corvallistransit.com/RTT/Public/Transit.aspx?page=text&plt=214",,
215,"13671","NW Garfield Ave & NW Highland Dr",44.583071,-123.262192,"http://www.corvallistransit.com/RTT/Public/Transit.aspx?page=text&plt=215",,
216,"13663","NW Garfield Ave & NW 9th St",44.583086,-123.259741,"http://www.corvallistransit.com/RTT/Public/Transit.aspx?page=text&plt=216",,
221,"13967","NW Grant Ave & NW Kings Boulevard",44.578535,-123.276377,"http://www.corvallistransit.com/RTT/Public/Transit.aspx?page=text&plt=221",,
223,"13594","NW Grant Ave & NW 29th St",44.578631,-123.282479,"http://www.corvallistransit.com/RTT/Public/Transit.aspx?page=text&plt=223",,
224,"13784","NW Grant Ave & NW Alta Vista Dr",44.578697,-123.288600,"http://www.corvallistransit.com/RTT/Public/Transit.aspx?page=text&plt=224",,
231,"13518","SW 53rd St & SW Windflower Dr",44.548905,-123.311958,"http://www.corvallistransit.com/RTT/Public/Transit.aspx?page=text&plt=231",,
232,"13502","SW 53rd St & SW Meadow Flower Dr",44.546534,-123.311964,"http://www.corvallistransit.com/RTT/Public/Transit.aspx?page=text&plt=232",,
234,"13489","SW Grand Oaks Dr & SW Banyon Cir",44.558729,-123.319284,"http://www.corvallistransit.com/RTT/Public/Transit.aspx?page=text&plt=234",,
235,"13470","SW Grand Oaks Dr & SW Delwood Ave",44.561294,-123.319027,"http://www.corvallistransit.com/RTT/Public/Transit.aspx?page=text&plt=235",,
236,"13462","SW Grand Oaks Dr & SW Timber Ridge Dr",44.560022,-123.324677,"http://www.corvallistransit.com/RTT/Public/Transit.aspx?page=text&plt=236",,
237,"13458","SW Grand Oaks Dr & Grand Oaks Apartments",44.557737,-123.324076,"http://www.corvallistransit.com/RTT/Public/Transit.aspx?page=text&plt=237",,
245,"14394","NW Witham Hill Dr & NW Walnut Blvd",44.593449,-123.302281,"http://www.corvallistransit.com/RTT/Public/Transit.aspx?page=text&plt=245",,
247,"10396","NW 9th St & NW Circle Blvd",44.589122,-123.254595,"http://www.corvallistransit.com/RTT/Public/Transit.aspx?page=text&plt=247",,
248,"10401","NW 9th St & NW Spruce Ave",44.586338,-123.256155,"http://www.corvallistransit.com/RTT/Public/Transit.aspx?page=text&plt=248",,
249,"10365","NW 9th St & NW Walnut Blvd",44.594429,-123.251644,"http://www.corvallistransit.com/RTT/Public/Transit.aspx?page=text&plt=249",,
250,"10911","NW 9th St & NW Maxine Ave",44.597569,-123.249931,"http://www.corvallistransit.com/RTT/Public/Transit.aspx?page=text&plt=250",,
251,"10907","Northeast  Conifer Blvd & Pacific Hwy West",44.596914,-123.248399,"http://www.corvallistransit.com/RTT/Public/Transit.aspx?page=text&plt=251",,
252,"10897","Northeast  Conifer Blvd & NE Cambridge Cir",44.598296,-123.246118,"http://www.corvallistransit.com/RTT/Public/Transit.aspx?page=text&plt=252",,
253,"10377","Northeast Conifer Blvd & Meadow Park Mobile  Park",44.599917,-123.244981,"http://www.corvallistransit.com/RTT/Public/Transit.aspx?page=text&plt=253",,
254,"10383","Northeast  Conifer Blvd & NE Canterbury Cir",44.599959,-123.241340,"http://www.corvallistransit.com/RTT/Public/Transit.aspx?page=text&plt=254",,
255,"10884","Northeast Conifer Blvd & NE Dorchester Way",44.600116,-123.238601,"http://www.corvallistransit.com/RTT/Public/Transit.aspx?page=text&plt=255",,
256,"10878","Northeast Conifer Blvd & NE Glacier Way",44.599405,-123.234905,"http://www.corvallistransit.com/RTT/Public/Transit.aspx?page=text&plt=256",,
257,"10924","NW Samaritan Dr",44.603263,-123.249759,"http://www.corvallistransit.com/RTT/Public/Transit.aspx?page=text&plt=257",,
259,"10930","NW Samaritan Dr",44.603762,-123.253143,"http://www.corvallistransit.com/RTT/Public/Transit.aspx?page=text&plt=259",,
260,"10417","NW 9th St & NW Garfield Ave",44.583351,-123.257805,"http://www.corvallistransit.com/RTT/Public/Transit.aspx?page=text&plt=260",,
261,"10673","NW 9th St & NW Garfield Ave",44.582578,-123.258459,"http://www.corvallistransit.com/RTT/Public/Transit.aspx?page=text&plt=261",,
264,"10438","NW 9th St & NW Grant Ave",44.579914,-123.259693,"http://www.corvallistransit.com/RTT/Public/Transit.aspx?page=text&plt=264",,
266,"10455","NW 9th St & NW Reiman St",44.573257,-123.263645,"http://www.corvallistransit.com/RTT/Public/Transit.aspx?page=text&plt=266",,
274,"12477","NW Monroe Ave & NW 9th St",44.566160,-123.267679,"http://www.corvallistransit.com/RTT/Public/Transit.aspx?page=text&plt=274",,
275,"12465","NW Monroe Ave & NW 11th St",44.566640,-123.269601,"http://www.corvallistransit.com/RTT/Public/Transit.aspx?page=text&plt=275",,
276,"12454","NW Monroe Ave & NW 15th St",44.567407,-123.272721,"http://www.corvallistransit.com/RTT/Public/Transit.aspx?page=text&plt=276",,
277,"12449","NW Monroe Ave & NW Kings Blvd",44.567959,-123.274940,"http://www.corvallistransit.com/RTT/Public/Transit.aspx?page=text&plt=277",,
278,"12420","NW Monroe Avenue and NW 23rd Street",44.568608,-123.277769,"http://www.corvallistransit.com/RTT/Public/Transit.aspx?page=text&plt=278",,
279,"12412","NW Arnold Way & NW 26th St",44.569356,-123.280374,"http://www.corvallistransit.com/RTT/Public/Transit.aspx?page=text&plt=279",,
280,"12408","NW Arnold Way & NW Short Ave",44.570958,-123.282354,"http://www.corvallistransit.com/RTT/Public/Transit.aspx?page=text&plt=280",,
281,"12393","NW Arnold Way & NW Van Buren Ave",44.570941,-123.282465,"http://www.corvallistransit.com/RTT/Public/Transit.aspx?page=text&plt=281",,
282,"12386","NW Harrison Blvd & NW 30th St",44.571823,-123.284297,"http://www.corvallistransit.com/RTT/Public/Transit.aspx?page=text&plt=282",,
283,"12505","NW 33rd St & NW Harrison Blvd",44.571832,-123.286752,"http://www.corvallistransit.com/RTT/Public/Transit.aspx?page=text&plt=283",,
284,"12483","NW Harrison Blvd & NW 36th St",44.571811,-123.291407,"http://www.corvallistransit.com/RTT/Public/Transit.aspx?page=text&plt=284",,
285,"10003","NW Harrison Blvd & NW Witham Dr",44.571829,-123.294831,"http://www.corvallistransit.com/RTT/Public/Transit.aspx?page=text&plt=285",,
293,"10088","SW 53rd St & SW Helen Ave",44.552688,-123.312093,"http://www.corvallistransit.com/RTT/Public/Transit.aspx?page=text&plt=293",,
299,"10144","SW 49th St & SW Aster St",44.546015,-123.306824,"http://www.corvallistransit.com/RTT/Public/Transit.aspx?page=text&plt=299",,
301,"10159","SW 49th St & SW Roseberry St",44.547117,-123.306817,"http://www.corvallistransit.com/RTT/Public/Transit.aspx?page=text&plt=301",,
302,"10171","SW 49th St & Spring Creek Apartments",44.548501,-123.308376,"http://www.corvallistransit.com/RTT/Public/Transit.aspx?page=text&plt=302",,
304,"10192","SW 53rd St & SW Technology Loop",44.549995,-123.311906,"http://www.corvallistransit.com/RTT/Public/Transit.aspx?page=text&plt=304",,
305,"10205","SW 53rd St & SW Helen Ave",44.552546,-123.311935,"http://www.corvallistransit.com/RTT/Public/Transit.aspx?page=text&plt=305",,
306,"10214","NW Harrison Blvd & NW 34th St",44.571681,-123.289208,"http://www.corvallistransit.com/RTT/Public/Transit.aspx?page=text&plt=306",,
307,"10222","NW Harrison Blvd & NW 33rd St",44.571702,-123.287482,"http://www.corvallistransit.com/RTT/Public/Transit.aspx?page=text&plt=307",,
308,"10233","NW Harrison Blvd & NW 31st St",44.571699,-123.285520,"http://www.corvallistransit.com/RTT/Public/Transit.aspx?page=text&plt=308",,
309,"10246","NW Monroe Ave & SW 26th St",44.568894,-123.279725,"http://www.corvallistransit.com/RTT/Public/Transit.aspx?page=text&plt=309",,
310,"10251","NW Monroe Ave & NW 23rd St",44.568373,-123.277379,"http://www.corvallistransit.com/RTT/Public/Transit.aspx?page=text&plt=310",,
311,"10267","NW Monroe Ave & NW Kings Blvd",44.567756,-123.274631,"http://www.corvallistransit.com/RTT/Public/Transit.aspx?page=text&plt=311",,
312,"10279","NW Monroe Ave & SW 14th St",44.567065,-123.271859,"http://www.corvallistransit.com/RTT/Public/Transit.aspx?page=text&plt=312",,
314,"10298","NW Monroe Ave & SW 9th St",44.565836,-123.267007,"http://www.corvallistransit.com/RTT/Public/Transit.aspx?page=text&plt=314",,
318,"14421","NW Kings Blvd & NW Elmwood Dr",44.587697,-123.275940,"http://www.corvallistransit.com/RTT/Public/Transit.aspx?page=text&plt=318",,
319,"14432","Timberhill Shopping Center",44.590562,-123.275927,"http://www.corvallistransit.com/RTT/Public/Transit.aspx?page=text&plt=319",,
320,"14445","NW Kings Blvd & NW Circle Blvd",44.585587,-123.276106,"http://www.corvallistransit.com/RTT/Public/Transit.aspx?page=text&plt=320",,
321,"14450","NW Kings Blvd & NW Garfield Ave",44.582743,-123.276087,"http://www.corvallistransit.com/RTT/Public/Transit.aspx?page=text&plt=321",,
322,"14466","NW Kings Blvd & NW Mulkey Ave",44.580284,-123.276068,"http://www.corvallistransit.com/RTT/Public/Transit.aspx?page=text&plt=322",,
323,"14478","NW Kings Blvd & NW Fillmore Ave",44.575682,-123.275350,"http://www.corvallistransit.com/RTT/Public/Transit.aspx?page=text&plt=323",,
324,"14484","NW Kings Blvd & NW Taylor Ave",44.574064,-123.275270,"http://www.corvallistransit.com/RTT/Public/Transit.aspx?page=text&plt=324",,
325,"14497","NW Kings Blvd & NW Tyler Ave",44.572768,-123.275245,"http://www.corvallistransit.com/RTT/Public/Transit.aspx?page=text&plt=325",,
326,"14506","NW Kings Blvd & NW Jackson Ave",44.569490,-123.275175,"http://www.corvallistransit.com/RTT/Public/Transit.aspx?page=text&plt=326",,
327,"14510","NW Kings Blvd & NW Jackson Ave",44.569583,-123.275051,"http://www.corvallistransit.com/RTT/Public/Transit.aspx?page=text&plt=327",,
328,"14523","NW Kings Blvd & NW Tyler Ave",44.572655,-123.275120,"http://www.corvallistransit.com/RTT/Public/Transit.aspx?page=text&plt=328",,
329,"14534","NW Kings Blvd & NW Fillmore Ave",44.575153,-123.275156,"http://www.corvallistransit.com/RTT/Public/Transit.aspx?page=text&plt=329",,
330,"14547","NW Kings Blvd & NW Beca Ave",44.577752,-123.275228,"http://www.corvallistransit.com/RTT/Public/Transit.aspx?page=text&plt=330",,
331,"14552","NW Kings Blvd & NW Kings Pl",44.579825,-123.275882,"http://www.corvallistransit.com/RTT/Public/Transit.aspx?page=text&plt=331",,
332,"14568","NW Kings Blvd & NW Hayes Ave",44.581751,-123.275898,"http://www.corvallistransit.com/RTT/Public/Transit.aspx?page=text&plt=332",,
333,"14575","NW Kings Blvd & NW Arthur Pl",44.584064,-123.275922,"http://www.corvallistransit.com/RTT/Public/Transit.aspx?page=text&plt=333",,
334,"14581","NW Kings Blvd & NW Circle Blvd",44.585566,-123.275921,"http://www.corvallistransit.com/RTT/Public/Transit.aspx?page=text&plt=334",,
335,"14599","NW Kings Blvd & NW Monroe Ave",44.568232,-123.274999,"http://www.corvallistransit.com/RTT/Public/Transit.aspx?page=text&plt=335",,
339,"14631","NW Witham Hill Dr & NW Circle Blvd",44.581688,-123.295524,"http://www.corvallistransit.com/RTT/Public/Transit.aspx?page=text&plt=339",,
340,"14649","NW Witham Hill Dr at Witham Oaks",44.583944,-123.298105,"http://www.corvallistransit.com/RTT/Public/Transit.aspx?page=text&plt=340",,
341,"14654","NW Witham Hill Dr & NW Westview Pl",44.585967,-123.300116,"http://www.corvallistransit.com/RTT/Public/Transit.aspx?page=text&plt=341",,
342,"14665","NW Witham Hill Dr & NW Elmwood Dr",44.589134,-123.302137,"http://www.corvallistransit.com/RTT/Public/Transit.aspx?page=text&plt=342",,
343,"14677","NW Witham Hill Dr & NW Elmwood Dr",44.588720,-123.302308,"http://www.corvallistransit.com/RTT/Public/Transit.aspx?page=text&plt=343",,
344,"14683","NW Witham Hill Dr & NW Douglas Ave",44.585530,-123.299840,"http://www.corvallistransit.com/RTT/Public/Transit.aspx?page=text&plt=344",,
345,"14696","NW Witham Hill Dr & NW Pinecone Way",44.583471,-123.297840,"http://www.corvallistransit.com/RTT/Public/Transit.aspx?page=text&plt=345",,
346,"14704","NW Witham Hill Dr & NW Woodland Dr",44.581858,-123.296022,"http://www.corvallistransit.com/RTT/Public/Transit.aspx?page=text&plt=346",,
347,"14715","NW Witham Hill Dr & NW Fernwood Cir",44.579036,-123.291939,"http://www.corvallistransit.com/RTT/Public/Transit.aspx?page=text&plt=347",,
352,"14360","SW 26th St & SW Washington Way",44.561541,-123.279556,"http://www.corvallistransit.com/RTT/Public/Transit.aspx?page=text&plt=352",,
353,"12496","NW Harrison Blvd & NW 35th St",44.571752,-123.289164,"http://www.corvallistransit.com/RTT/Public/Transit.aspx?page=text&plt=353",,
359,"14271","Downtown Transit Center",44.564733,-123.263725,"http://www.corvallistransit.com/RTT/Public/Transit.aspx?page=text&plt=359",,441
371,"14292","NW Professional Dr & NW Kings Blvd",44.591361,-123.276198,"http://www.corvallistransit.com/RTT/Public/Transit.aspx?page=text&plt=371",,
372,"14285","NW Kings Blvd & NW Elmwood Dr",44.587696,-123.276110,"http://www.corvallistransit.com/RTT/Public/Transit.aspx?page=text&plt=372",,
378,"14216","SE Crystal Lake Dr & SW 3rd St",44.551932,-123.264045,"http://www.corvallistransit.com/RTT/Public/Transit.aspx?page=text&plt=378",,
380,"14200","SW Philomath Blvd & SW Blueberry Dr",44.551499,-123.310087,"http://www.corvallistransit.com/RTT/Public/Transit.aspx?page=text&plt=380",,
384,"14095","SW Research Way & SW Technology Loop",44.551647,-123.303375,"http://www.corvallistransit.com/RTT/Public/Transit.aspx?page=text&plt=384",,
387,"14082","SW Research Way & DHS",44.551511,-123.296489,"http://www.corvallistransit.com/RTT/Public/Transit.aspx?page=text&plt=387",,
388,"11690","Circle & Dale",44.578544,-123.297502,"http://www.corvallistransit.com/RTT/Public/Transit.aspx?page=text&plt=388",,
390,"11397","Nw Circle Boulevard & NW Dale Drive",44.578584,-123.297698,"http://www.corvallistransit.com/RTT/Public/Transit.aspx?page=text&plt=390",,
391,"13998","NW Circle Boulevard & NW Dale Drive",44.576488,-123.298420,"http://www.corvallistransit.com/RTT/Public/Transit.aspx?page=text&plt=391",,
394,"11657","NW Harrison & NW 36th Street",44.571652,-123.291424,"http://www.corvallistransit.com/RTT/Public/Transit.aspx?page=text&plt=394",,
395,"11402","Northwest 9th Street & Northwest Harrison Boulevar",44.569025,-123.265649,"http://www.corvallistransit.com/RTT/Public/Transit.aspx?page=text&plt=395",,
396,"12816","Northwest 5th Street & Northwest Polk Avenue",44.569385,-123.260853,"http://www.corvallistransit.com/RTT/Public/Transit.aspx?page=text&plt=396",,
397,"11418","Northwest 29th Street & Northwest Ashwood Drive",44.588637,-123.283135,"http://www.corvallistransit.com/RTT/Public/Transit.aspx?page=text&plt=397",,
398,"14886","Northwest 29th Street & Northwest Roosevelt Drive",44.591337,-123.283288,"http://www.corvallistransit.com/RTT/Public/Transit.aspx?page=text&plt=398",,
399,"14990","Northwest 29th Street & Circle Blvd",44.586843,-123.283056,"http://www.corvallistransit.com/RTT/Public/Transit.aspx?page=text&plt=399",,
400,"13830","Southwest 35th Street & Southwest Philomath Boulev",44.554190,-123.289685,"http://www.corvallistransit.com/RTT/Public/Transit.aspx?page=text&plt=400",,
401,"13848","Southwest 35th Street",44.548600,-123.289827,"http://www.corvallistransit.com/RTT/Public/Transit.aspx?page=text&plt=401",,
402,"13824","Southwest Research Way & Southwest Country Club Dr",44.548441,-123.294332,"http://www.corvallistransit.com/RTT/Public/Transit.aspx?page=text&plt=402",,
403,"13807","Southwest Research Way & Corvallis-Philomath Multi",44.551618,-123.296453,"http://www.corvallistransit.com/RTT/Public/Transit.aspx?page=text&plt=403",,
404,"13811","Southwest Research Way",44.551766,-123.303386,"http://www.corvallistransit.com/RTT/Public/Transit.aspx?page=text&plt=404",,
405,"14988","Southwest 53rd Street",44.556159,-123.312222,"http://www.corvallistransit.com/RTT/Public/Transit.aspx?page=text&plt=405",,
406,"14069","Northwest Buchanan Avenue & Northwest 13th Street",44.576178,-123.267426,"http://www.corvallistransit.com/RTT/Public/Transit.aspx?page=text&plt=406",,
407,"14076","Northwest Buchanan Avenue & Northwest 17th Street",44.576132,-123.271197,"http://www.corvallistransit.com/RTT/Public/Transit.aspx?page=text&plt=407",,
408,"13922","Northwest Grant Avenue & Northwest Kings Boulevard",44.578667,-123.276372,"http://www.corvallistransit.com/RTT/Public/Transit.aspx?page=text&plt=408",,
409,"13933","Northwest Grant Avenue & Northwest 29th Street",44.578742,-123.283272,"http://www.corvallistransit.com/RTT/Public/Transit.aspx?page=text&plt=409",,
410,"13946","Northwest Grant Avenue & Northwest Alta Vista Driv",44.578819,-123.288266,"http://www.corvallistransit.com/RTT/Public/Transit.aspx?page=text&plt=410",,
411,"13951","Northwest Walnut Boulevard & Northwest Glenridge D",44.594031,-123.302488,"http://www.corvallistransit.com/RTT/Public/Transit.aspx?page=text&plt=411",,
412,"13905","Northwest Maser Drive & Northwest Walnut Boulevard",44.591378,-123.307233,"http://www.corvallistransit.com/RTT/Public/Transit.aspx?page=text&plt=412",,
413,"13914","Northwest Elmwood Drive & Northwest Kinderman Driv",44.588983,-123.305130,"http://www.corvallistransit.com/RTT/Public/Transit.aspx?page=text&plt=413",,
414,"13979","Northwest Buchanan Avenue & Northwest 17th Street",44.576030,-123.271196,"http://www.corvallistransit.com/RTT/Public/Transit.aspx?page=text&plt=414",,
415,"14053","Northwest Buchanan Avenue & Northwest 13th Street",44.576063,-123.267423,"http://www.corvallistransit.com/RTT/Public/Transit.aspx?page=text&plt=415",,
416,"14903","Northwest Roosevelt Drive & Northwest 29th Street",44.591273,-123.283444,"http://www.corvallistransit.com/RTT/Public/Transit.aspx?page=text&plt=416",,
417,"14840","Northwest 29th Street & Northwest Ashwood Drive",44.588644,-123.283275,"http://www.corvallistransit.com/RTT/Public/Transit.aspx?page=text&plt=417",,
418,"14872","Downtown Transit Center",44.564633,-123.263345,"http://www.corvallistransit.com/RTT/Public/Transit.aspx?page=text&plt=418",,441
419,"14864","Downtown Transit Center",44.564730,-123.263303,"http://www.corvallistransit.com/RTT/Public/Transit.aspx?page=text&plt=419",,441
420,"11425","Northwest Circle Boulevard & Northwest Dale Drive",44.576535,-123.298168,"http://www.corvallistransit.com/RTT/Public/Transit.aspx?page=text&plt=420",,
439,"13491","Southwest West Hills Road & SW 55th Street",44.556348,-123.314398,"http://www.corvallistransit.com/RTT/Public/Transit.aspx?page=text&plt=439",,
440,"14926","Northwest Circle Boulevard",44.573673,-123.299092,"http://www.corvallistransit.com/RTT/Public/Transit.aspx?page=text&plt=440",,
441,,"Downtown Transit Center",44.564744,-123.263399,,1,
