stop_id,stop_code,platform_code,stop_name,stop_desc,stop_lat,stop_lon,zone_id,stop_url,location_type,parent_station,stop_timezone,position,direction,wheelchair_boarding,tts_stop_name
4149984,906,,QUEEN ST + CHANDLER ST,,42.260255,-71.813587,,,0,,America/New_York,,,0,
4149985,229,,FIRST ST + 7 FIRST ST,,42.254858,-71.847267,,,0,,America/New_York,,,0,
4149986,1185,,COES POND VILLAGE,,42.252435,-71.849882,,,0,,America/New_York,,,0,
4149987,909,,QUEEN ST + CHANDLER ST,,42.260468,-71.81353,,,0,,America/New_York,,,0,
4149988,908,,QUEEN ST + JAQUES AVE,,42.258863,-71.81469,,,0,,America/New_York,,,0,
4149989,1143,,WOODLAND ST + KING ST,,42.2583,-71.816257,,,0,,America/New_York,,,0,
4149990,1142,,WOODLAND ST + OLD FIRE STATION,,42.257195,-71.817155,,,0,,America/New_York,,,0,
4149991,1141,,WOODLAND ST + MAY ST,,42.256248,-71.817902,,,0,,America/New_York,,,0,
4149992,704,,MAY ST + HOLLYWOOD ST,,42.256058,-71.819173,,,0,,America/New_York,,,0,
4149993,703,,MAY ST + MASON ST,,42.256417,-71.820683,,,0,,America/New_York,,,0,
4149994,705,,MAY ST + DEWEY ST,,42.256773,-71.822233,,,0,,America/New_York,,,0,
4149995,798,,PARK AVE + MAY ST,,42.2569,-71.823092,,,0,,America/New_York,,,0,
4149996,797,,PARK AVE + OBERLIN ST,,42.25582,-71.82433,,,0,,America/New_York,,,0,
4149997,796,,PARK AVE + DOWNING ST,,42.254795,-71.825523,,,0,,America/New_York,,,0,
4149998,795,,PARK AVE + SHIRLEY ST,,42.253483,-71.827048,,,0,,America/New_York,,,0,
4149999,717,,MAYWOOD ST + BEAVER BROOK PKWY,,42.25388,-71.830212,,,0,,America/New_York,,,0,
4150000,565,,LOVELL ST + MAYWOOD ST,,42.254175,-71.832548,,,0,,America/New_York,,,0,
4150001,563,,LOVELL ST + SPAULDING ST,,42.252482,-71.832437,,,0,,America/New_York,,,0,
4150002,562,,LOVELL ST + LAKESIDE AVE,,42.250242,-71.831848,,,0,,America/New_York,,,0,
4150003,1260,,PARK AVE + COES ST,,42.248827,-71.83231,,,0,,America/New_York,,,0,
4150004,731,,MILL ST + SOUTH BUFFUM ST,,42.248278,-71.834702,,,0,,America/New_York,,,0,
4150005,730,,MILL ST + 103 MILL ST,,42.248913,-71.835735,,,0,,America/New_York,,,0,
4150006,732,,MILL ST + BALL ST,,42.249383,-71.83781,,,0,,America/New_York,,,0,
4150007,729,,MILL ST + GATES LN,,42.249232,-71.839597,,,0,,America/New_York,,,0,
4150008,728,,MILL ST + PLAZA ENTRANCE,,42.250162,-71.841545,,,0,,America/New_York,,,0,
4150009,727,,MILL ST + POND BATH HOUSE,,42.251218,-71.842578,,,0,,America/New_York,,,0,
4150010,726,,MILL ST + OCOINS,,42.253222,-71.844557,,,0,,America/New_York,,,0,
4150011,725,,MILL ST + BAY STATE SAVINGS,,42.254842,-71.84609,,,0,,America/New_York,,,0,
4150012,723,,MILL ST + FOURTH ST,,42.256718,-71.847895,,,0,,America/New_York,,,0,
4150013,1138,,WILLIAMSBURG DR + MILL ST,,42.257807,-71.849182,,,0,,America/New_York,,,0,
4150014,1184,,OUTLOOK DR + 23 OUTLOOKM DR,,42.257243,-71.850938,,,0,,America/New_York,,,0,
4150015,1137,,WILLIAMSBURG DR + 69 OUTLOOK DR,,42.257632,-71.853187,,,0,,America/New_York,,,0,
4150016,1259,,WASHINGTON HEIGHTS 2,,42.257855,-71.85461,,,0,,America/New_York,,,0,
4150017,1020,,SUNNY VIEW HEIGHTS + PLEASANT ST,,42.283032,-71.8802,,,0,,America/New_York,,,0,
4150018,843,,PLEASANT ST + 1341 PLEASANT ST,,42.281028,-71.874797,,,0,,America/New_York,,,0,
4150019,842,,PLEASANT ST + EDWIDGE ST,,42.280623,-71.8723,,,0,,America/New_York,,,0,
4150020,840,,PLEASANT ST + BAXTER ST,,42.280202,-71.868915,,,0,,America/New_York,,,0,
4150021,130,,CHANDLER ST + PLEASANT ST,,42.27808,-71.853752,,,0,,America/New_York,,,0,
4150022,129,,CHANDLER ST + MILL ST,,42.276992,-71.852925,,,0,,America/New_York,,,0,
4150023,128,,CHANDLER ST + ATWATER ST,,42.274982,-71.850922,,,0,,America/New_York,,,0,
4150024,127,,CHANDLER ST + MANHATTEN RD 1,,42.27371,-71.849618,,,0,,America/New_York,,,0,
4150025,152,,CHANDLER ST + HUNTHURST CIRCLE,,42.272008,-71.847362,,,0,,America/New_York,,,0,
4150026,150,,CHANDLER ST + WORCESTER STATE UNIVERSITY,,42.269012,-71.841155,,,0,,America/New_York,,,0,
4150027,144,,CHANDLER ST + JUNE ST,,42.264013,-71.833525,,,0,,America/New_York,,,0,
4150028,143,,CHANDLER ST + GENEVA ST,,42.263315,-71.831388,,,0,,America/New_York,,,0,
4150029,142,,CHANDLER ST + LOVELL ST,,42.262925,-71.829195,,,0,,America/New_York,,,0,
4150030,141,,CHANDLER ST + COOLIDGE RD,,42.262503,-71.826755,,,0,,America/New_York,,,0,
4150031,140,,CHANDLER ST + FOLEY STADIUM,,42.262305,-71.823583,,,0,,America/New_York,,,0,
4150032,139,,CHANDLER ST + ABBOTT ST,,42.261772,-71.82147,,,0,,America/New_York,,,0,
4150033,138,,CHANDLER ST + DEWEY ST,,42.26136,-71.819705,,,0,,America/New_York,,,0,
4150034,137,,CHANDLER ST + BANCROFT ST,,42.260812,-71.817632,,,0,,America/New_York,,,0,
4150035,136,,CHANDLER ST + BELLEVUE ST,,42.260612,-71.815565,,,0,,America/New_York,,,0,
4150036,135,,CHANDLER ST + QUEEN ST,,42.260675,-71.813252,,,0,,America/New_York,,,0,
4150037,134,,CHANDLER ST + PIEDMONT ST,,42.260692,-71.812028,,,0,,America/New_York,,,0,
4150038,133,,CHANDLER ST + WELLINGTON ST,,42.260637,-71.809373,,,0,,America/New_York,,,0,
4150039,132,,CHANDLER ST + IRVING ST,,42.260295,-71.80691,,,0,,America/New_York,,,0,
4150040,131,,CHANDLER ST + MAIN ST,,42.259888,-71.805368,,,0,,America/New_York,,,0,
4150041,177,,CHANDLER ST + IRVING ST,,42.260207,-71.807085,,,0,,America/New_York,,,0,
4150042,176,,CHANDLER ST + WELLINGTON ST,,42.260588,-71.809643,,,0,,America/New_York,,,0,
4150043,175,,CHANDLER ST + PIEDMONT ST,,42.260588,-71.811893,,,0,,America/New_York,,,0,
4150044,174,,CHANDLER ST + QUEEN ST,,42.260572,-71.81376,,,0,,America/New_York,,,0,
4150045,173,,CHANDLER ST + KING ST,,42.260548,-71.816002,,,0,,America/New_York,,,0,
4150046,160,,CHANDLER ST + DEWEY ST,,42.261352,-71.820213,,,0,,America/New_York,,,0,
4150047,159,,CHANDLER ST + ABBOTT ST,,42.261772,-71.82182,,,0,,America/New_York,,,0,
4150048,171,,CHANDLER ST + MAYFIELD ST,,42.262257,-71.823853,,,0,,America/New_York,,,0,
4150049,170,,CHANDLER ST + COOLIDGE RD,,42.262377,-71.825745,,,0,,America/New_York,,,0,
4150050,157,,CHANDLER ST + GENEVA ST,,42.263203,-71.831245,,,0,,America/New_York,,,0,
4150051,156,,CHANDLER ST + JUNE ST,,42.263847,-71.833422,,,0,,America/New_York,,,0,
4150052,155,,CHANDLER ST + FISKE ST,,42.264753,-71.83502,,,0,,America/New_York,,,0,
4150053,154,,CHANDLER ST + UNDERWOOD ST,,42.265707,-71.836713,,,0,,America/New_York,,,0,
4150054,169,,CHANDLER ST + HAMILL RD,,42.266987,-71.839097,,,0,,America/New_York,,,0,
4150055,168,,CHANDLER ST + WORCESTER STATE UNIVERSITY,,42.2684,-71.841107,,,0,,America/New_York,,,0,
4150056,166,,CHANDLER ST + HUNTHURST CIRCLE,,42.271962,-71.847497,,,0,,America/New_York,,,0,
4150057,164,,CHANDLER ST + MANHATTEN RD,,42.273582,-71.84965,,,0,,America/New_York,,,0,
4150058,1253,,CHANDLER ST + ANNISQUAM ST,,42.275553,-71.85167,,,0,,America/New_York,,,0,
4150059,162,,CHANDLER ST + MILL ST,,42.276768,-71.852942,,,0,,America/New_York,,,0,
4150060,161,,CHANDLER ST + PLEASANT ST,,42.278175,-71.853958,,,0,,America/New_York,,,0,
4150061,850,,PLEASANT ST + JOPPA RD,,42.27967,-71.867612,,,0,,America/New_York,,,0,
4150062,849,,PLEASANT ST + PROUTY LN,,42.28025,-71.86936,,,0,,America/New_York,,,0,
4150063,881,,PLEASANT ST + EDWIDGE ST,,42.28048,-71.872532,,,0,,America/New_York,,,0,
4150064,2,,BAILEY ST + AIRPORT DR,,42.280147,-71.874137,,,0,,America/New_York,,,0,
4150065,1,,BAILEY ST + ASABET LN,,42.279702,-71.876552,,,0,,America/New_York,,,0,
4150066,1019,,SUNNY HILL DR + BAILEY RD,,42.279392,-71.878515,,,0,,America/New_York,,,0,
4150067,286,,GRAFTON ST + CLARISSA ST,,42.237898,-71.752693,,,0,,America/New_York,,,0,
4150068,285,,GRAFTON ST + MONTEFORTE ST,,42.239155,-71.753258,,,0,,America/New_York,,,0,
4150069,283,,GRAFTON ST + SUNDERLAND RD,,42.241317,-71.754197,,,0,,America/New_York,,,0,
4150070,282,,GRAFTON ST + PINE HILL RD,,42.243588,-71.756413,,,0,,America/New_York,,,0,
4150071,281,,GRAFTON ST + 1003 GRAFTON ST,,42.244162,-71.757318,,,0,,America/New_York,,,0,
4150072,280,,GRAFTON ST + DALTON ST,,42.246172,-71.759887,,,0,,America/New_York,,,0,
4150073,279,,GRAFTON ST + ARCADIA ST,,42.247738,-71.761365,,,0,,America/New_York,,,0,
4150074,278,,GRAFTON ST + JENNINGS ST,,42.248723,-71.762373,,,0,,America/New_York,,,0,
4150075,271,,GRAFTON ST + PROGRESSIVE ST,,42.250567,-71.76502,,,0,,America/New_York,,,0,
4150076,277,,GRAFTON ST + VALMOR ST,,42.250733,-71.767047,,,0,,America/New_York,,,0,
4150077,269,,GRAFTON ST + CORRINE ST,,42.250567,-71.768898,,,0,,America/New_York,,,0,
4150078,268,,GRAFTON ST + INVERNESS AVE,,42.250742,-71.771998,,,0,,America/New_York,,,0,
4150079,267,,GRAFTON ST + DANA AVE,,42.25044,-71.773523,,,0,,America/New_York,,,0,
4150080,266,,GRAFTON ST + LAMAR AVE,,42.250185,-71.775407,,,0,,America/New_York,,,0,
4150081,265,,GRAFTON ST + PURITAN AVE,,42.250908,-71.777418,,,0,,America/New_York,,,0,
4150082,264,,GRAFTON ST + FAIRMONT AVE,,42.250853,-71.779603,,,0,,America/New_York,,,0,
4150083,275,,GRAFTON ST + FLOWER ST,,42.25276,-71.782727,,,0,,America/New_York,,,0,
4150084,274,,GRAFTON ST + PALM ST,,42.254293,-71.783617,,,0,,America/New_York,,,0,
4150085,273,,GRAFTON ST + ARTHUR ST,,42.255375,-71.784943,,,0,,America/New_York,,,0,
4150086,296,,GRAFTON ST + CAROLINE ST,,42.255232,-71.784633,,,0,,America/New_York,,,0,
4150087,295,,GRAFTON ST + HALE ST,,42.254397,-71.78364,,,0,,America/New_York,,,0,
4150088,316,,GRAFTON ST + FLOWER ST,,42.252688,-71.782607,,,0,,America/New_York,,,0,
4150089,303,,GRAFTON ST + RUGBY ST,,42.250957,-71.779833,,,0,,America/New_York,,,0,
4150090,302,,GRAFTON ST + FAIRMONT AVE,,42.251052,-71.778562,,,0,,America/New_York,,,0,
4150091,318,,GRAFTON ST + PURITAN AVE,,42.250972,-71.777187,,,0,,America/New_York,,,0,
4150092,301,,GRAFTON ST + DELMONT AVE,,42.250225,-71.775312,,,0,,America/New_York,,,0,
4150093,300,,GRAFTON ST + DANA AVE,,42.250527,-71.773555,,,0,,America/New_York,,,0,
4150094,317,,GRAFTON ST + WARNER AVE,,42.250893,-71.772395,,,0,,America/New_York,,,0,
4150095,299,,GRAFTON ST + CORRINE ST,,42.250687,-71.76854,,,0,,America/New_York,,,0,
4150096,315,,GRAFTON ST + BANGOR ST,,42.250622,-71.764965,,,0,,America/New_York,,,0,
4150097,293,,GRAFTON ST + JENNINGS ST,,42.24854,-71.762023,,,0,,America/New_York,,,0,
4150098,314,,GRAFTON ST + ARCADIA ST,,42.247532,-71.761078,,,0,,America/New_York,,,0,
4150099,1180,,GRAFTON ST + JOLMA RD,,42.245282,-71.75894,,,0,,America/New_York,,,0,
4150100,311,,GRAFTON ST + PINE HILL RD,,42.243605,-71.756302,,,0,,America/New_York,,,0,
4150101,292,,GRAFTON ST + SUNDERLAND RD,,42.24153,-71.754267,,,0,,America/New_York,,,0,
4150102,1179,,GRAFTON ST + MONTEFORTE ST,,42.239368,-71.753187,,,0,,America/New_York,,,0,
4150103,310,,GRAFTON ST + CLARISSA ST,,42.237803,-71.752487,,,0,,America/New_York,,,0,
4150104,309,,GRAFTON ST + BLITHEWOOD AVE,,42.236818,-71.751812,,,0,,America/New_York,,,0,
4150105,7025,,EAST MAIN ST + DAY ST,,42.05488,-71.876623,,,0,,America/New_York,,,0,
4150106,7020,,EAST MAIN ST + SLATER ST,,42.057217,-71.870695,,,0,,America/New_York,,,0,
4150107,7010,,WORCESTER RD + EAST MAIN ST,,42.059848,-71.864512,,,0,,America/New_York,,,0,
4150108,7005,,WORCESTER RD + 75 WORCESTER RD,,42.070497,-71.866452,,,0,,America/New_York,,,0,
4150109,6545,,MAIN ST + SUNSET AVE,,42.097073,-71.869233,,,0,,America/New_York,,,0,
4150110,6540,,MAIN ST + STATE ST,,42.103995,-71.866912,,,0,,America/New_York,,,0,
4150111,6530,,MAIN ST + SIGOURNE ST,,42.11822,-71.864655,,,0,,America/New_York,,,0,
4150112,6525,,MAIN ST + FEDERAL HILL,,42.13743,-71.866563,,,0,,America/New_York,,,0,
4150113,6520,,MAIN ST + PLANTATION RD,,42.145282,-71.865903,,,0,,America/New_York,,,0,
4150114,6515,,MAIN ST + OLD WORCESTER RD,,42.150963,-71.872983,,,0,,America/New_York,,,0,
4150115,6510,,SOUTHBRIDGE ST + LIECESTER ST,,42.163218,-71.886542,,,0,,America/New_York,,,0,
4150116,6505,,SOUTHBRIDGE ST + WALMART,,42.172087,-71.880177,,,0,,America/New_York,,,0,
4150117,6185,,SOUTHBRIDGE ST + WEST ST,,42.182633,-71.866627,,,0,,America/New_York,,,0,
4150118,6180,,SOUTHBRIDGE ST + GOULDING ST,,42.18327,-71.859935,,,0,,America/New_York,,,0,
4150119,6175,,SOUTHBRIDGE ST + OXFORD ST,,42.18865,-71.8495,,,0,,America/New_York,,,0,
4150120,6170,,SOUTHBRIDGE ST + JOHNSON ST,,42.191828,-71.845042,,,0,,America/New_York,,,0,
4150121,957,,SOUTHBRIDGE ST + RIVERSIDE ST,,42.24293,-71.811552,,,0,,America/New_York,,,0,
4150122,956,,SOUTHBRIDGE ST + CAMBRIDGE ST,,42.24424,-71.810773,,,0,,America/New_York,,,0,
4150123,955,,SOUTHBRIDGE ST + COLTON ST,,42.245147,-71.810533,,,0,,America/New_York,,,0,
4150124,954,,SOUTHBRIDGE ST + LEWIS ST,,42.246163,-71.810392,,,0,,America/New_York,,,0,
4150125,953,,SOUTHBRIDGE ST + GLADSTONE ST,,42.246967,-71.810312,,,0,,America/New_York,,,0,
4150126,952,,SOUTHBRIDGE ST + HAMMOND ST,,42.250908,-71.80896,,,0,,America/New_York,,,0,
4150127,970,,SOUTHBRIDGE ST + HAMMOND ST,,42.251012,-71.808793,,,0,,America/New_York,,,0,
4150128,969,,SOUTHBRIDGE ST + 459 SOUTHBRIDGE ST,,42.250337,-71.80916,,,0,,America/New_York,,,0,
4150129,968,,SOUTHBRIDGE ST + 539 SOUTHBRIDGE ST,,42.247237,-71.810168,,,0,,America/New_York,,,0,
4150130,967,,SOUTHBRIDGE ST + WASHBURN ST,,42.246092,-71.810272,,,0,,America/New_York,,,0,
4150131,966,,SOUTHBRIDGE ST + CAMBRIDGE ST,,42.244535,-71.810518,,,0,,America/New_York,,,0,
4150132,6205,,SOUTHBRIDGE ST + 569 SOUTHBRIDGE ST,,42.191432,-71.845185,,,0,,America/New_York,,,0,
4150133,6200,,SOUTHBRIDGE ST + OXFORD ST,,42.188467,-71.849555,,,0,,America/New_York,,,0,
4150134,6195,,SOUTHBRIDGE ST + 711 SOUTHBRIDGE ST,,42.183142,-71.860093,,,0,,America/New_York,,,0,
4150135,6190,,SOUTHBRIDGE ST + WEST ST,,42.182777,-71.865617,,,0,,America/New_York,,,0,
4150136,6600,,MAIN ST + 742 MAIN ST,,42.172023,-71.880128,,,0,,America/New_York,,,0,
4150137,6595,,SOUTHBRIDGE ST + LIECESTER ST,,42.163417,-71.886487,,,0,,America/New_York,,,0,
4150138,6590,,SOUTHBRIDGE ST + OLD WORCESTER RD,,42.147928,-71.86909,,,0,,America/New_York,,,0,
4150139,6585,,MAIN ST + PLANTATION RD,,42.145417,-71.865847,,,0,,America/New_York,,,0,
4150140,6580,,MAIN ST + FEDERAL HILL,,42.137287,-71.866357,,,0,,America/New_York,,,0,
4150141,6575,,MAIN ST + SIGOURNE ST,,42.11784,-71.864552,,,0,,America/New_York,,,0,
4150142,6565,,MAIN ST + STATE ST,,42.104027,-71.866802,,,0,,America/New_York,,,0,
4150143,6560,,MAIN ST + HOLBROOK RD,,42.097613,-71.868582,,,0,,America/New_York,,,0,
4150144,7065,,WORCESTER RD + 75 WORCESTER RD,,42.070735,-71.86638,,,0,,America/New_York,,,0,
4150145,7060,,EAST MAIN ST + PARADIS LN,,42.058465,-71.867262,,,0,,America/New_York,,,0,
4150146,7055,,EAST MAIN ST + PARK AVE,,42.057527,-71.869582,,,0,,America/New_York,,,0,
4150147,7045,,EAST MAIN ST + DAY ST,,42.054928,-71.876353,,,0,,America/New_York,,,0,
4150148,7040,,EAST MAIN ST + LAKE ST,,42.050248,-71.879978,,,0,,America/New_York,,,0,
4150149,7030,,DAVIS ST + MAIN ST,,42.049127,-71.884778,,,0,,America/New_York,,,0,
4150150,737,,MILLBURY ST + FOOTBRIDGE OVER 146,,42.23828,-71.798343,,,0,,America/New_York,,,0,
4150151,736,,MILLBURY ST + ESTHER ST,,42.239982,-71.800687,,,0,,America/New_York,,,0,
4150152,735,,MILLBURY ST + FIFTH AVE,,42.240918,-71.801648,,,0,,America/New_York,,,0,
4150153,734,,MILLBURY ST + PERRY AVE,,42.242867,-71.802403,,,0,,America/New_York,,,0,
4150154,733,,MILLBURY ST + DIAMOND ST,,42.244582,-71.80219,,,0,,America/New_York,,,0,
4150155,1177,,MILLBURY ST + HARLEM ST,,42.24645,-71.801045,,,0,,America/New_York,,,0,
4150156,1178,,MILLBURY ST + WARD ST,,42.247182,-71.800608,,,0,,America/New_York,,,0,
4150157,1176,,MILLBURY ST + WARD ST,,42.247237,-71.800568,,,0,,America/New_York,,,0,
4150158,743,,MILLBURY ST + HARLEM ST,,42.246505,-71.801005,,,0,,America/New_York,,,0,
4150159,748,,MILLBURY ST + DIAMOND ST,,42.244742,-71.802118,,,0,,America/New_York,,,0,
4150160,742,,MILLBURY ST + PERRY AVE,,42.243033,-71.802357,,,0,,America/New_York,,,0,
4150161,741,,MILLBURY ST + FIFTH AVE,,42.240808,-71.801427,,,0,,America/New_York,,,0,
4150162,740,,MILLBURY ST + ESTHER ST,,42.239813,-71.800298,,,0,,America/New_York,,,0,
4150163,739,,MILLBURY ST + BURTON ST,,42.238392,-71.798312,,,0,,America/New_York,,,0,
4150164,738,,MILLBURY ST + FOOTBRIDGE OVER 146,,42.237812,-71.796595,,,0,,America/New_York,,,0,
4150165,1175,,MILLBURY ST + GRAMMONT RD,,42.237335,-71.794893,,,0,,America/New_York,,,0,
4150166,1146,,SHOPPES + BLACKSTONE VALLEY,,42.195827,-71.776997,,,0,,America/New_York,,,0,
4150167,1235,,LINCOLN PARK TOWERS,,42.272938,-71.758242,,,0,,America/New_York,,,0,
4150168,8715,,MAIN ST + ROUTE 67,,42.224992,-72.05759,,,0,,America/New_York,,,0,
4150169,8710,,MAIN ST + EAST BROOKFIELD CENTER,,42.226257,-72.05024,,,0,,America/New_York,,,0,
4150170,8705,,MAIN ST + COURT HOUSE,,42.231445,-72.030467,,,0,,America/New_York,,,0,
4150171,8065,,MAIN ST + SPENCER FAIR,,42.232963,-72.013618,,,0,,America/New_York,,,0,
4150172,8060,,MAIN ST + SPENCER FAIR,,42.232837,-72.013777,,,0,,America/New_York,,,0,
4150173,8735,,MAIN ST + COURT HOUSE,,42.23139,-72.030093,,,0,,America/New_York,,,0,
4150174,8730,,MAIN ST + EAST BROOKFIELD CENTER,,42.2262,-72.05016,,,0,,America/New_York,,,0,
4150175,8725,,MAIN ST + ROUTE 67,,42.225048,-72.057297,,,0,,America/New_York,,,0,
4150176,8520,,CENTRAL ST + SOUTH MAPLE,,42.214717,-72.096938,,,0,,America/New_York,,,0,
4150177,8510,,COMMON ST + BROOKFIELD COMMON,,42.215202,-72.102675,,,0,,America/New_York,,,0,
4150178,1227,,MOUNTAIN ST. EAST + BRIAR LN,,42.317777,-71.775742,,,0,,America/New_York,,,0,
4150179,1226,,MOUNTAIN ST. EAST + QUINAPOXET LN,,42.32028,-71.784865,,,0,,America/New_York,,,0,
4150180,1194,,MOUNTAIN ST. EAST + BURNCOAT ST,,42.323452,-71.79204,,,0,,America/New_York,,,0,
4150181,752,,MOUNTAIN ST EAST + QUINAPOXET LN,,42.320265,-71.784562,,,0,,America/New_York,,,0,
4150182,5010,,WEST BOYLSTON ST + 249 WEST BOYLSTON ST,,42.345077,-71.78693,,,0,,America/New_York,,,0,
4150183,5005,,WEST BOYLSTON ST + CHAPMAN AVE,,42.341753,-71.787963,,,0,,America/New_York,,,0,
4150184,1104,,WEST BOYLSTON ST + TYSON RD,,42.335118,-71.789005,,,0,,America/New_York,,,0,
4150185,1103,,WEST BOYLSTON ST + WILBUR ST,,42.334292,-71.789347,,,0,,America/New_York,,,0,
4150186,1102,,WEST BOYLSTON ST + KENNEBEC ST,,42.333235,-71.7898,,,0,,America/New_York,,,0,
4150187,1101,,WEST BOYLSTON ST + APTHROP ST,,42.33143,-71.790555,,,0,,America/New_York,,,0,
4150188,1100,,WEST BOYLSTON ST + COTUIT ST,,42.329793,-71.791207,,,0,,America/New_York,,,0,
4150189,1099,,WEST BOYLSTON ST + DIXFIELD RD,,42.328252,-71.791485,,,0,,America/New_York,,,0,
4150190,1098,,WEST BOYLSTON ST + STOP & SHOP,,42.327138,-71.791842,,,0,,America/New_York,,,0,
4150191,1097,,WEST BOYLSTON ST + REYNOLDS ST,,42.325343,-71.792788,,,0,,America/New_York,,,0,
4150192,1096,,WEST BOYLSTON ST + MALDEN ST,,42.324588,-71.793145,,,0,,America/New_York,,,0,
4150193,1095,,WEST BOYLSTON ST + VENDORA RD,,42.32326,-71.793828,,,0,,America/New_York,,,0,
4150194,1094,,WEST BOYLSTON ST + HASTINGS RD,,42.322227,-71.794298,,,0,,America/New_York,,,0,
4150195,1093,,WEST BOYLSTON ST + VOLKMAR RD,,42.320543,-71.794973,,,0,,America/New_York,,,0,
4150196,1092,,WEST BOYLSTON ST + CLYDE RD,,42.318293,-71.795815,,,0,,America/New_York,,,0,
4150197,1091,,WEST BOYLSTON ST + MARLAND RD,,42.31668,-71.796253,,,0,,America/New_York,,,0,
4150198,1090,,WEST BOYLSTON ST + QUINSIGMUND COMMUNITY COLLEGE,,42.315368,-71.796627,,,0,,America/New_York,,,0,
4150199,1089,,WEST BOYLSTON ST + ASSUMPTION AVE,,42.312858,-71.79739,,,0,,America/New_York,,,0,
4150200,13,,BELMONT ST + ADAMS ST,,42.273478,-71.778142,,,0,,America/New_York,,,0,
4150201,12,,BELMONT ST + SKYLINE DR,,42.273303,-71.781702,,,0,,America/New_York,,,0,
4150202,11,,BELMONT ST + OLGA AVE,,42.272732,-71.784627,,,0,,America/New_York,,,0,
4150203,10,,BELMONT ST + STANTON ST,,42.272732,-71.785658,,,0,,America/New_York,,,0,
4150204,9,,BELMONT ST + EVERARD ST,,42.272677,-71.787033,,,0,,America/New_York,,,0,
4150205,8,,BELMONT ST + MERRIFIELD ST,,42.272453,-71.788933,,,0,,America/New_York,,,0,
4150206,7,,BELMONT ST + EASTERN AVE,,42.272358,-71.789728,,,0,,America/New_York,,,0,
4150207,6,,BELMONT ST + ELIZABETH ST,,42.272263,-71.790667,,,0,,America/New_York,,,0,
4150208,5,,BELMONT ST + EDWARD ST,,42.272143,-71.791858,,,0,,America/New_York,,,0,
4150209,4,,BELMONT ST + ROUTE 290 RAMP EAST,,42.271922,-71.793653,,,0,,America/New_York,,,0,
4150210,3,,BELMONT ST + ROUTE 290 RAMP WEST,,42.27158,-71.796253,,,0,,America/New_York,,,0,
4150211,467,,HOOPER ST + BELMONT ST,,42.27262,-71.790173,,,0,,America/New_York,,,0,
4150212,468,,HOOPER ST + KENDALL ST,,42.273527,-71.789903,,,0,,America/New_York,,,0,
4150213,469,,HOOPER ST + CATHERINE ST,,42.274862,-71.789442,,,0,,America/New_York,,,0,
4150214,1213,,GREENHILL APARTMENTS,,42.277087,-71.788305,,,0,,America/New_York,,,0,
4150215,471,,HOOPER ST + CATHERINE ST,,42.274813,-71.789473,,,0,,America/New_York,,,0,
4150216,470,,HOOPER ST + KENDALL ST,,42.273392,-71.789927,,,0,,America/New_York,,,0,
4150217,36,,BELMONT ST + FOUNTAIN ST,,42.271778,-71.795975,,,0,,America/New_York,,,0,
4150218,35,,BELMONT ST + EDWARD ST,,42.272097,-71.7927,,,0,,America/New_York,,,0,
4150219,34,,BELMONT ST + HOOPER ST,,42.272303,-71.790507,,,0,,America/New_York,,,0,
4150220,33,,BELMONT ST + EASTERN AVE,,42.272462,-71.789157,,,0,,America/New_York,,,0,
4150221,32,,BELMONT ST + RODNEY ST,,42.272573,-71.788075,,,0,,America/New_York,,,0,
4150222,31,,BELMONT ST + EVERARD ST,,42.272717,-71.786963,,,0,,America/New_York,,,0,
4150223,30,,BELMONT ST + STANTON ST,,42.272795,-71.78604,,,0,,America/New_York,,,0,
4150224,29,,BELMONT ST + OLGA AVE,,42.272795,-71.784547,,,0,,America/New_York,,,0,
4150225,28,,BELMONT ST + SKYLINE DR,,42.273407,-71.782083,,,0,,America/New_York,,,0,
4150226,27,,BELMONT ST + ODEN AVE,,42.273582,-71.778633,,,0,,America/New_York,,,0,
4150227,26,,BELMONT ST + PRENTICE ST,,42.273653,-71.775725,,,0,,America/New_York,,,0,
4150228,25,,BELMONT ST + MCRAE CT,,42.273733,-71.773897,,,0,,America/New_York,,,0,
4150229,1198,,MOUNTAIN ST EAST + BRIAR LN,,42.317817,-71.775573,,,0,,America/New_York,,,0,
4150230,1197,,MOUNTAIN ST EAST + MOSQUE,,42.31521,-71.772832,,,0,,America/New_York,,,0,
4150231,1169,,CLARK ST + TEAMSTER VILLAGE,,42.313008,-71.773405,,,0,,America/New_York,,,0,
4150232,182,,CLARK ST + TACOMA ST,,42.311768,-71.77621,,,0,,America/New_York,,,0,
4150233,181,,CLARK ST + HARLEY DR,,42.311498,-71.780017,,,0,,America/New_York,,,0,
4150234,983,,ST NICHOLAS AVE + CLARK ST,,42.310522,-71.781343,,,0,,America/New_York,,,0,
4150235,982,,ST NICHOLAS AVE + 191 ST NICHOLAS AVE,,42.309393,-71.78051,,,0,,America/New_York,,,0,
4150236,985,,ST NICHOLAS AVE + ONTARIO ST,,42.30816,-71.779603,,,0,,America/New_York,,,0,
4150237,981,,ST NICHOLAS AVE + SQUANTUM ST,,42.306787,-71.778593,,,0,,America/New_York,,,0,
4150238,980,,ST NICHOLAS AVE + ONANDAGA ST,,42.305857,-71.777887,,,0,,America/New_York,,,0,
4150239,979,,ST NICHOLAS AVE + HILDA ST,,42.304425,-71.776822,,,0,,America/New_York,,,0,
4150240,978,,ST NICHOLAS AVE + COUNTRY CLUB BLVD,,42.303322,-71.775217,,,0,,America/New_York,,,0,
4150241,200,,COUNTRY CLUB BLVD + ERIE AVE,,42.303027,-71.774708,,,0,,America/New_York,,,0,
4150242,199,,COUNTRY CLUB BLVD + REC CENTER,,42.301835,-71.776305,,,0,,America/New_York,,,0,
4150243,198,,COUNTRY CLUB BLVD + 132 COUNTRY CLUB BLVD,,42.299935,-71.77679,,,0,,America/New_York,,,0,
4150244,197,,COUNTRY CLUB BLVD + 126 COUNTRY CLUB BLVD,,42.299292,-71.776258,,,0,,America/New_York,,,0,
4150245,196,,COUNTRY CLUB BLVD + 52 COUNTRY CLUB BLVD,,42.297567,-71.775025,,,0,,America/New_York,,,0,
4150246,195,,COUNTRY CLUB BLVD + HOTEL ENTRANCE,,42.296145,-71.774827,,,0,,America/New_York,,,0,
4150247,194,,COUNTRY CLUB BLVD + LINCOLN ST,,42.29508,-71.774637,,,0,,America/New_York,,,0,
4150248,531,,LINCOLN ST + TRINITY AVE,,42.29295,-71.7783,,,0,,America/New_York,,,0,
4150249,530,,LINCOLN ST + MARSH AVE,,42.292083,-71.780207,,,0,,America/New_York,,,0,
4150250,529,,LINCOLN ST + HANOVER INSURANCE,,42.291328,-71.782178,,,0,,America/New_York,,,0,
4150251,528,,LINCOLN ST + WAKEFIELD ST,,42.289382,-71.786422,,,0,,America/New_York,,,0,
4150252,527,,LINCOLN ST + GORHAM ST,,42.28842,-71.787813,,,0,,America/New_York,,,0,
4150253,526,,LINCOLN ST + BUCKINGHAM ST,,42.287482,-71.78918,,,0,,America/New_York,,,0,
4150254,518,,LINCOLN ST + OLD LINCOLN ST 2,,42.27371,-71.797532,,,0,,America/New_York,,,0,
4150255,516,,LINCOLN ST + OLD LINCOLN ST 1,,42.272263,-71.79851,,,0,,America/New_York,,,0,
4150256,567,,MAJOR TAYLOR BLVD + BELMONT ST,,42.270952,-71.79859,,,0,,America/New_York,,,0,
4150257,566,,MAJOR TAYLOR BLVD + MCPHS,,42.269815,-71.798582,,,0,,America/New_York,,,0,
4150258,573,,MAIN ST + THOMAS ST,,42.268193,-71.800442,,,0,,America/New_York,,,0,
4150259,570,,MAJOR TAYLOR BLVD + MCPHS,,42.2698,-71.798883,,,0,,America/New_York,,,0,
4150260,569,,MAJOR TAYLOR BLVD + HIGHLAND ST,,42.270848,-71.798907,,,0,,America/New_York,,,0,
4150261,553,,LINCOLN ST + LINCOLN SQ,,42.271897,-71.798835,,,0,,America/New_York,,,0,
4150262,551,,LINCOLN ST + ROUTE 290 RAMP,,42.273987,-71.797565,,,0,,America/New_York,,,0,
4150263,546,,LINCOLN ST + FROTHINGHAM RD,,42.287553,-71.789283,,,0,,America/New_York,,,0,
4150264,544,,LINCOLN ST + ORAN ST,,42.289325,-71.78674,,,0,,America/New_York,,,0,
4150265,543,,LINCOLN ST + HANOVER INSURANCE,,42.291607,-71.781955,,,0,,America/New_York,,,0,
4150266,542,,LINCOLN ST + BEVERLY RD,,42.292242,-71.780112,,,0,,America/New_York,,,0,
4150267,541,,LINCOLN ST + GOLDWAITHE RD,,42.293108,-71.778252,,,0,,America/New_York,,,0,
4150268,207,,COUNTRY CLUB BLVD + LINCOLN ST,,42.295127,-71.774987,,,0,,America/New_York,,,0,
4150269,206,,COUNTRY CLUB BLVD + PLAZA ENTRANCE,,42.296375,-71.775042,,,0,,America/New_York,,,0,
4150270,205,,COUNTRY CLUB BLVD + PLEASANT VALLEY DR,,42.297782,-71.775335,,,0,,America/New_York,,,0,
4150271,204,,COUNTRY CLUB BLVD + 91 COUNTRY CLUB BLVD,,42.29926,-71.776345,,,0,,America/New_York,,,0,
4150272,203,,COUNTRY CLUB BLVD + 111 COUNTRY CLUB BLVD,,42.299895,-71.776885,,,0,,America/New_York,,,0,
4150273,202,,COUNTRY CLUB BLVD + REC CENTER,,42.301898,-71.77636,,,0,,America/New_York,,,0,
4150274,201,,COUNTRY CLUB BLVD + ERIE AVE,,42.302995,-71.774867,,,0,,America/New_York,,,0,
4150275,992,,ST NICHOLAS AVE + 5 ST NICHOLAS AVE,,42.303282,-71.775303,,,0,,America/New_York,,,0,
4150276,991,,ST NICHOLAS AVE + HILDA ST,,42.30441,-71.776948,,,0,,America/New_York,,,0,
4150277,990,,ST NICHOLAS AVE + ONANDAGA ST,,42.305673,-71.777895,,,0,,America/New_York,,,0,
4150278,989,,ST NICHOLAS AVE + SQUANTUM ST,,42.30685,-71.778777,,,0,,America/New_York,,,0,
4150279,988,,ST NICHOLAS AVE + ONTARIO ST,,42.308312,-71.779882,,,0,,America/New_York,,,0,
4150280,987,,ST NICHOLAS AVE + 194 ST NICHOLAS AVE,,42.309393,-71.7807,,,0,,America/New_York,,,0,
4150281,986,,ST NICHOLAS AVE + CLARK ST,,42.310473,-71.781503,,,0,,America/New_York,,,0,
4150282,185,,CLARK ST + HARLEY DR,,42.31153,-71.779755,,,0,,America/New_York,,,0,
4150283,184,,CLARK ST + TACOMA ST,,42.312038,-71.775748,,,0,,America/New_York,,,0,
4150284,1168,,CLARK ST + TEAMSTER VILLAGE,,42.31304,-71.773547,,,0,,America/New_York,,,0,
4150285,1167,,CENTURY DR + RED CROSS,,42.315718,-71.769232,,,0,,America/New_York,,,0,
4150286,1155,,100 CENTURY DR,,42.314113,-71.769908,,,0,,America/New_York,,,0,
4150287,751,,MOUNTAIN ST EAST + MOSQUE,,42.315083,-71.772863,,,0,,America/New_York,,,0,
4150288,1153,,MOUNTAIN VILLAGE,,42.318095,-71.778753,,,0,,America/New_York,,,0,
4150289,652,,MASSASOIT RD + HEYWOOD ST,,42.249803,-71.779483,,,0,,America/New_York,,,0,
4150290,1181,,GRAFTON ST + ACTON ST,,42.251735,-71.782138,,,0,,America/New_York,,,0,
4150291,217,,DORCHESTER ST + ARTHUR ST,,42.252212,-71.783768,,,0,,America/New_York,,,0,
4150292,215,,DORCHESTER ST + CUTLER ST,,42.252045,-71.786582,,,0,,America/New_York,,,0,
4150293,211,,DORCHESTER ST + RICE LN,,42.251982,-71.78813,,,0,,America/New_York,,,0,
4150294,210,,DORCHESTER ST + SHANNON ST,,42.251893,-71.788997,,,0,,America/New_York,,,0,
4150295,209,,DORCHESTER ST + CHAPIN ST,,42.251798,-71.790532,,,0,,America/New_York,,,0,
4150296,214,,DORCHESTER ST + PROVIDENCE ST 2,,42.251718,-71.792143,,,0,,America/New_York,,,0,
4150297,224,,DORCHESTER ST + PROVIDENCE ST,,42.251735,-71.792318,,,0,,America/New_York,,,0,
4150298,223,,DORCHESTER ST + CHAPIN ST,,42.25179,-71.791008,,,0,,America/New_York,,,0,
4150299,222,,DORCHESTER ST + BARCLAY ST,,42.25191,-71.78906,,,0,,America/New_York,,,0,
4150300,221,,DORCHESTER ST + MENDON ST,,42.251982,-71.787828,,,0,,America/New_York,,,0,
4150301,219,,DORCHESTER ST + HOUGHTON ST,,42.252077,-71.786462,,,0,,America/New_York,,,0,
4150302,218,,DORCHESTER ST + ARTHUR ST,,42.252212,-71.783958,,,0,,America/New_York,,,0,
4150303,294,,GRAFTON ST + PLANTATION ST,,42.251718,-71.782052,,,0,,America/New_York,,,0,
4150304,693,,MASSASOIT RD + HEYWOOD ST,,42.249732,-71.779357,,,0,,America/New_York,,,0,
4150305,670,,MASSASOIT RD + BLITHEWOOD AVE 1,,42.235897,-71.76498,,,0,,America/New_York,,,0,
4150306,1255,,PLEASANT ST + SOUTH OLEANS ST,,42.27866,-71.856088,,,0,,America/New_York,,,0,
4150307,1173,,PLEASANT ST + MOWER ST,,42.278278,-71.853258,,,0,,America/New_York,,,0,
4150308,838,,PLEASANT ST + POMONA RD,,42.278128,-71.852162,,,0,,America/New_York,,,0,
4150309,836,,PLEASANT ST + CHESTERFIELD RD,,42.278318,-71.848785,,,0,,America/New_York,,,0,
4150310,835,,PLEASANT ST + WRENTHAM RD,,42.278772,-71.846457,,,0,,America/New_York,,,0,
4150311,833,,PLEASANT ST + MORELAND ST,,42.278152,-71.843753,,,0,,America/New_York,,,0,
4150312,832,,PLEASANT ST + MOORE AVE,,42.277492,-71.841592,,,0,,America/New_York,,,0,
4150313,831,,PLEASANT ST + GUILD RD,,42.277357,-71.840067,,,0,,America/New_York,,,0,
4150314,830,,PLEASANT ST + FLAGG ST,,42.27742,-71.838255,,,0,,America/New_York,,,0,
4150315,829,,PLEASANT ST + KENILWORTH RD,,42.27692,-71.836378,,,0,,America/New_York,,,0,
4150316,828,,PLEASANT ST + BERWICK ST,,42.276102,-71.834932,,,0,,America/New_York,,,0,
4150317,827,,PLEASANT ST + LENOX ST,,42.274878,-71.833105,,,0,,America/New_York,,,0,
4150318,826,,PLEASANT ST + INTERVALE RD,,42.272683,-71.830593,,,0,,America/New_York,,,0,
4150319,825,,PLEASANT ST + ELMWOOD ST,,42.271477,-71.829402,,,0,,America/New_York,,,0,
4150320,824,,PLEASANT ST + GREENLEAF TER,,42.270602,-71.82778,,,0,,America/New_York,,,0,
4150321,822,,PLEASANT ST + COOLIDGE RD,,42.269497,-71.825078,,,0,,America/New_York,,,0,
4150322,811,,PLEASANT ST + COPLEY RD 2,,42.267105,-71.823758,,,0,,America/New_York,,,0,
4150323,810,,PLEASANT ST + COPLEY RD 1,,42.26585,-71.82298,,,0,,America/New_York,,,0,
4150324,821,,PLEASANT ST + FEDERAL PL,,42.264332,-71.820517,,,0,,America/New_York,,,0,
4150325,820,,PLEASANT ST + PARK AVE,,42.263688,-71.819277,,,0,,America/New_York,,,0,
4150326,819,,PLEASANT ST + HUDSON ST,,42.263433,-71.81806,,,0,,America/New_York,,,0,
4150327,1244,,PLEASANT ST + BELLEVUE ST,,42.263473,-71.81647,,,0,,America/New_York,,,0,
4150328,817,,PLEASANT ST + RUSSELL ST,,42.263695,-71.81504,,,0,,America/New_York,,,0,
4150329,816,,PLEASANT ST + MERRICK ST,,42.26387,-71.814032,,,0,,America/New_York,,,0,
4150330,815,,PLEASANT ST + FRUIT ST,,42.264108,-71.81144,,,0,,America/New_York,,,0,
4150331,814,,PLEASANT ST + WEST ST,,42.264013,-71.809135,,,0,,America/New_York,,,0,
4150332,813,,PLEASANT ST + ASHLAND ST,,42.263902,-71.807625,,,0,,America/New_York,,,0,
4150333,812,,PLEASANT ST + LINDEN ST,,42.263815,-71.806353,,,0,,America/New_York,,,0,
4150334,878,,PLEASANT ST + CHESTNUT ST,,42.263695,-71.804788,,,0,,America/New_York,,,0,
4150335,877,,PLEASANT ST + IRVING ST,,42.263775,-71.806243,,,0,,America/New_York,,,0,
4150336,876,,PLEASANT ST + OXFORD ST,,42.263855,-71.807458,,,0,,America/New_York,,,0,
4150337,875,,PLEASANT ST + CROWN ST,,42.26395,-71.80869,,,0,,America/New_York,,,0,
4150338,874,,PLEASANT ST + HAWLEY ST,,42.264037,-71.811988,,,0,,America/New_York,,,0,
4150339,872,,PLEASANT ST + RUSSELL ST,,42.263775,-71.814357,,,0,,America/New_York,,,0,
4150340,871,,PLEASANT ST + BELLEVUE ST,,42.263418,-71.816232,,,0,,America/New_York,,,0,
4150341,870,,PLEASANT ST + MASON ST,,42.263353,-71.817822,,,0,,America/New_York,,,0,
4150342,869,,PLEASANT ST + PARK AVE,,42.263522,-71.819197,,,0,,America/New_York,,,0,
4150343,868,,PLEASANT ST + ABBOTT ST,,42.264148,-71.820342,,,0,,America/New_York,,,0,
4150344,866,,PLEASANT ST + NORMAN AVE 1,,42.26511,-71.822193,,,0,,America/New_York,,,0,
4150345,865,,PLEASANT ST + COPLEY RD,,42.266103,-71.823465,,,0,,America/New_York,,,0,
4150346,1171,,PLEASANT ST + 642 PLEASANT ST,,42.267288,-71.82406,,,0,,America/New_York,,,0,
4150347,880,,PLEASANT ST + COOLIDGE RD,,42.269243,-71.825022,,,0,,America/New_York,,,0,
4150348,864,,PLEASANT ST + JUNE ST,,42.270013,-71.825872,,,0,,America/New_York,,,0,
4150349,862,,PLEASANT ST + HOWLAND TER,,42.27142,-71.829433,,,0,,America/New_York,,,0,
4150350,882,,PLEASANT ST + HAWDEN LN,,42.272008,-71.830117,,,0,,America/New_York,,,0,
4150351,861,,PLEASANT ST + SAINT ELMO RD,,42.273567,-71.831388,,,0,,America/New_York,,,0,
4150352,860,,PLEASANT ST + LENOX ST,,42.275068,-71.83355,,,0,,America/New_York,,,0,
4150353,847,,PLEASANT ST + KENSINGTON HEIGHTS,,42.276007,-71.83494,,,0,,America/New_York,,,0,
4150354,859,,PLEASANT ST + KENILWORTH RD,,42.276872,-71.83649,,,0,,America/New_York,,,0,
4150355,857,,PLEASANT ST + MAY ST,,42.277253,-71.83986,,,0,,America/New_York,,,0,
4150356,856,,PLEASANT ST + MOORE AVE,,42.27746,-71.84203,,,0,,America/New_York,,,0,
4150357,855,,PLEASANT ST + MORELAND ST,,42.278025,-71.843682,,,0,,America/New_York,,,0,
4150358,854,,PLEASANT ST + CARDINAL RD,,42.278517,-71.847497,,,0,,America/New_York,,,0,
4150359,853,,PLEASANT ST + CHESTERFIELD RD,,42.278367,-71.848372,,,0,,America/New_York,,,0,
4150360,852,,PLEASANT ST + COPPERFIELD RD,,42.27804,-71.850198,,,0,,America/New_York,,,0,
4150361,851,,PLEASANT ST + MILL ST,,42.277962,-71.851122,,,0,,America/New_York,,,0,
4150362,782,,MOWER ST + 31 MOWER ST,,42.279027,-71.854642,,,0,,America/New_York,,,0,
4150363,8025,,MEADOW RD + SPENCER FAIR,,42.234792,-72.011743,,,0,,America/New_York,,,0,
4150364,8020,,MAIN ST + SPENCER CENTER,,42.24378,-71.995158,,,0,,America/New_York,,,0,
4150365,8015,,MAIN ST + SPENCER TOWN HALL,,42.244225,-71.992145,,,0,,America/New_York,,,0,
4150366,8010,,MAIN ST + DAVID PROUTY HIGH SCHOOL,,42.251003,-71.977968,,,0,,America/New_York,,,0,
4150367,8005,,MAIN ST + BOND ST,,42.25648,-71.959197,,,0,,America/New_York,,,0,
4150368,7525,,MAIN ST + 1530 MAIN ST,,42.245583,-71.932422,,,0,,America/New_York,,,0,
4150369,7520,,MAIN ST + LEICESTER CENTER,,42.245758,-71.907825,,,0,,America/New_York,,,0,
4150370,7515,,MAIN ST + HENSHAW ST,,42.245505,-71.899337,,,0,,America/New_York,,,0,
4150371,7510,,MAIN ST + AUBURN ST,,42.240212,-71.880645,,,0,,America/New_York,,,0,
4150372,7505,,MAIN ST + BOAT DEALERSHIP,,42.242595,-71.86789,,,0,,America/New_York,,,0,
4150373,592,,MAIN ST + LEICESTER LINE,,42.240783,-71.86359,,,0,,America/New_York,,,0,
4150374,590,,MAIN ST + GOULD HILL RD,,42.240442,-71.859998,,,0,,America/New_York,,,0,
4150375,3076,,MECHANIC ST + OPTICAL DR,,42.07606,-72.026763,,,0,,America/New_York,,,0,
4150376,3057,,QUINSIGMUND UPPER CAMPUS,,42.314932,-71.792828,,,0,,America/New_York,,,0,
4150377,3056,,MAJ TAYLOR BLVD + FOSTER ST,,42.264228,-71.797898,,,0,,America/New_York,,,0,
4150378,3055,,MAJ TAYLOR BLVD + DCU CENTER,,42.266263,-71.798137,,,0,,America/New_York,,,0,
4150379,3054,,MAJ TAYLOR BLVD + MLK,,42.267328,-71.798352,,,0,,America/New_York,,,0,
4150380,3053,,MAJ TAYLOR BLVD + THOMAS ST,,42.268153,-71.79851,,,0,,America/New_York,,,0,
4150381,9003,,WAVERLY ST + CORAL ST,,42.256328,-71.791936,,,0,,America/New_York,,,0,
4150382,4054,,NORTH MAIN ST + GROVE ST,,42.192663,-71.76099,,,0,,America/New_York,,,0,
4150383,4053,,NORTH MAIN ST + HAMILTON ST,,42.195787,-71.762978,,,0,,America/New_York,,,0,
4150384,4052,,NORTH MAIN ST + MARTIN ST,,42.198092,-71.767007,,,0,,America/New_York,,,0,
4150385,4051,,NORTH MAIN ST + DEWEY ST,,42.198782,-71.770695,,,0,,America/New_York,,,0,
4150386,4088,,NORTH MAIN ST + DEWEY ST,,42.19887,-71.770742,,,0,,America/New_York,,,0,
4150387,4087,,NORTH MAIN ST + MARTIN ST,,42.198147,-71.766857,,,0,,America/New_York,,,0,
4150388,4086,,NORTH MAIN ST + HAMILTON ST,,42.195802,-71.762907,,,0,,America/New_York,,,0,
4150389,4560,,MAIN ST + SOUTH ST,,42.295603,-71.703517,,,0,,America/New_York,,,0,
4150390,4555,,MAIN ST + FRANCIS ST,,42.296152,-71.706083,,,0,,America/New_York,,,0,
4150391,4550,,MAIN ST + SUMMER ST,,42.296533,-71.70958,,,0,,America/New_York,,,0,
4150392,4545,,MAIN ST + GRAFTON ST,,42.296637,-71.713395,,,0,,America/New_York,,,0,
4150393,4540,,MAPLE AVE + MAIN ST,,42.295953,-71.715945,,,0,,America/New_York,,,0,
4150394,4535,,MAPLE AVE + BRIGHTSIDE AVE,,42.290938,-71.721462,,,0,,America/New_York,,,0,
4150395,4530,,MAPLE AVE + OAK ST,,42.285702,-71.727867,,,0,,America/New_York,,,0,
4150396,4525,,MAPLE AVE + COMMONWEALTH AVE,,42.28273,-71.732747,,,0,,America/New_York,,,0,
4150397,788,,OUTLOOK DR + 57 OUTLOOK DR,,42.257942,-71.851955,,,0,,America/New_York,,,0,
4150398,787,,WILLIAMSBURG DR + RENTAL OFFICE,,42.257417,-71.852632,,,0,,America/New_York,,,0,
4150399,1136,,WILLIAMSBURG DR + 26 28 WILLIAMSBURG DR,,42.257178,-71.850993,,,0,,America/New_York,,,0,
4150400,1135,,WILLIAMSBURG DR + MILL ST,,42.25783,-71.849167,,,0,,America/New_York,,,0,
4150401,721,,MILL ST + BOWLING ALLEY,,42.253412,-71.844485,,,0,,America/New_York,,,0,
4150402,720,,MILL ST + POND BATH HOUSE,,42.251457,-71.842578,,,0,,America/New_York,,,0,
4150403,719,,MILL ST + PLAZA ENTRANCE,,42.250107,-71.841465,,,0,,America/New_York,,,0,
4150404,718,,MILL ST + GATES LN,,42.249272,-71.839407,,,0,,America/New_York,,,0,
4150405,186,,MILL ST + BALL ST,,42.249447,-71.837817,,,0,,America/New_York,,,0,
4150406,187,,COES ST + 51 COES ST,,42.249732,-71.835655,,,0,,America/New_York,,,0,
4150407,561,,LOVELL ST + LAKESIDE AVE,,42.250503,-71.832008,,,0,,America/New_York,,,0,
4150408,560,,LOVELL ST + COLUMBUS ST,,42.253547,-71.832692,,,0,,America/New_York,,,0,
4150409,716,,MAYWOOD ST + LOVELL ST,,42.254413,-71.832238,,,0,,America/New_York,,,0,
4150410,715,,MAYWOOD ST + BEAVER BROOK PKWY,,42.253992,-71.830537,,,0,,America/New_York,,,0,
4150411,792,,PARK AVE + MAYWOOD ST,,42.252958,-71.827795,,,0,,America/New_York,,,0,
4150412,791,,PARK AVE + DOWNING ST,,42.254302,-71.826213,,,0,,America/New_York,,,0,
4150413,789,,PARK AVE + OBERLIN ST,,42.256162,-71.8241,,,0,,America/New_York,,,0,
4150414,697,,MAY ST + PARK AVE,,42.256917,-71.822472,,,0,,America/New_York,,,0,
4150415,696,,MAY ST + FLORENCE ST,,42.256535,-71.821008,,,0,,America/New_York,,,0,
4150416,695,,MAY ST + HOLLYWOOD ST,,42.256082,-71.819142,,,0,,America/New_York,,,0,
4150417,1140,,WOODLAND ST + MAY ST,,42.255978,-71.81814,,,0,,America/New_York,,,0,
4150418,1139,,WOODLAND ST + OLD FIRE STATION,,42.256997,-71.817353,,,0,,America/New_York,,,0,
4150419,499,,KING ST + BLUFF ST,,42.258705,-71.816335,,,0,,America/New_York,,,0,
4150420,498,,KING ST + JAQUES AVE,,42.258872,-71.814675,,,0,,America/New_York,,,0,
4150421,907,,QUEEN ST + JAQUES AVE,,42.259213,-71.813538,,,0,,America/New_York,,,0,
4150422,589,,MAIN ST + LUDLOW ST,,42.239847,-71.85631,,,0,,America/New_York,,,0,
4150423,588,,MAIN ST + ARMANDALE ST,,42.240387,-71.854912,,,0,,America/New_York,,,0,
4150424,1212,,GODDARD DR + 156 GODDARD DR,,42.2576,-71.866062,,,0,,America/New_York,,,0,
4150425,248,,GODDARD DR + 135 GODDARD DR,,42.253968,-71.866578,,,0,,America/New_York,,,0,
4150426,249,,GODDARD DR + UPPER PARSONS HILL DR,,42.247618,-71.861063,,,0,,America/New_York,,,0,
4150427,1210,,GODDARD DR + LOWER PARSONS HILL DR,,42.243653,-71.856097,,,0,,America/New_York,,,0,
4150428,586,,MAIN ST + GRANDVIEW AVE,,42.241022,-71.852027,,,0,,America/New_York,,,0,
4150429,585,,MAIN ST + EUREKA ST,,42.241363,-71.849922,,,0,,America/New_York,,,0,
4150430,584,,MAIN ST + SYLVAN ST,,42.241753,-71.848188,,,0,,America/New_York,,,0,
4150431,582,,MAIN ST + BROOKLINE ST,,42.24225,-71.84593,,,0,,America/New_York,,,0,
4150432,581,,MAIN ST + GATES LN,,42.242635,-71.844318,,,0,,America/New_York,,,0,
4150433,580,,MAIN ST + HOLLAND RD,,42.242802,-71.84261,,,0,,America/New_York,,,0,
4150434,579,,MAIN ST + YOUNG ST,,42.243105,-71.841218,,,0,,America/New_York,,,0,
4150435,578,,MAIN ST + WAYNE ST,,42.243883,-71.83889,,,0,,America/New_York,,,0,
4150436,577,,MAIN ST + ARBOR VITAE ST,,42.244312,-71.83742,,,0,,America/New_York,,,0,
4150437,576,,MAIN ST + CURTIS ST,,42.244908,-71.834392,,,0,,America/New_York,,,0,
4150438,904,,PROVIDENCE ST + MILLBURY ST,,42.23797,-71.792065,,,0,,America/New_York,,,0,
4150439,1144,,WALMART ROUTE 146 PARKING LOT,,42.231748,-71.789958,,,0,,America/New_York,,,0,
4150440,1145,,ROUTE 146 + WALMART,,42.234028,-71.79038,,,0,,America/New_York,,,0,
4150441,44,,BLACKSTONE RIVER RD + MCKEON RD,,42.234967,-71.796102,,,0,,America/New_York,,,0,
4150442,43,,BLACKSTONE RIVER RD + FALMOUTH ST,,42.233917,-71.795522,,,0,,America/New_York,,,0,
4150443,42,,BLACKSTONE RIVER RD + WHIPPLE ST,,42.232423,-71.794377,,,0,,America/New_York,,,0,
4150444,367,,GREENWOOD ST + EKMAN ST,,42.231263,-71.793527,,,0,,America/New_York,,,0,
4150445,366,,GREENWOOD ST + KOSTA ST,,42.230063,-71.793098,,,0,,America/New_York,,,0,
4150446,365,,GREENWOOD ST + TATMAN ST,,42.228625,-71.792907,,,0,,America/New_York,,,0,
4150447,364,,GREENWOOD ST + 127 GREENWOOD ST,,42.22713,-71.79297,,,0,,America/New_York,,,0,
4150448,363,,GREENWOOD ST + FORSBERG ST,,42.226033,-71.793653,,,0,,America/New_York,,,0,
4150449,362,,GREENWOOD ST + 187 GREENWOOD ST,,42.2245,-71.795197,,,0,,America/New_York,,,0,
4150450,1045,,UPLAND ST + EMMANUEL,,42.223657,-71.79727,,,0,,America/New_York,,,0,
4150451,1046,,UPLAND ST + MALLARD RD,,42.223378,-71.79959,,,0,,America/New_York,,,0,
4150452,1044,,UPLAND ST + HARWICH ST,,42.22357,-71.80037,,,0,,America/New_York,,,0,
4150453,1043,,UPLAND ST + 65 UPLAND ST,,42.22423,-71.802745,,,0,,America/New_York,,,0,
4150454,1042,,UPLAND GARDEN DR + 10 UPLAND GARDEN DR,,42.223268,-71.80478,,,0,,America/New_York,,,0,
4150455,1041,,UPLAND GARDEN DR + 22 UPLAND GARDEN DR,,42.222473,-71.804033,,,0,,America/New_York,,,0,
4150456,1040,,UPLAND GARDEN DR + 36 UPLAND GARDEN DR,,42.221592,-71.8037,,,0,,America/New_York,,,0,
4150457,1039,,UPLAND GARDEN DR + 48 UPLAND GARDEN DR,,42.220582,-71.80343,,,0,,America/New_York,,,0,
4150458,1187,,SPOFFORD RD + BROUGHTON RD,,42.220852,-71.799623,,,0,,America/New_York,,,0,
4150459,359,,GREENWOOD ST + SOUTHOLD RD,,42.220645,-71.796658,,,0,,America/New_York,,,0,
4150460,358,,GREENWOOD ST + CONWAY ST,,42.219373,-71.796635,,,0,,America/New_York,,,0,
4150461,357,,GREENWOOD ST + RYBERG TER,,42.2185,-71.796627,,,0,,America/New_York,,,0,
4150462,356,,GREENWOOD ST + 327 GREENWOOD ST,,42.216958,-71.796293,,,0,,America/New_York,,,0,
4150463,354,,GREENWOOD ST + ARNOLD RD,,42.21513,-71.795895,,,0,,America/New_York,,,0,
4150464,353,,GREENWOOD ST + FAIR PLAZA SHELTER,,42.214057,-71.795848,,,0,,America/New_York,,,0,
4150465,320,,GRANITE ST + HOLCOMBE ST,,42.246665,-71.788568,,,0,,America/New_York,,,0,
4150466,894,,PROVIDENCE ST + 133 PROVIDENCE ST,,42.246538,-71.79204,,,0,,America/New_York,,,0,
4150467,889,,PROVIDENCE ST + PATTISON ST,,42.252307,-71.792668,,,0,,America/New_York,,,0,
4150468,888,,PROVIDENCE ST + JEFFERSON ST,,42.253412,-71.792748,,,0,,America/New_York,,,0,
4150469,272,,GRAFTON ST + TEMPLE ST,,42.259747,-71.793822,,,0,,America/New_York,,,0,
4150470,246,,FRONT ST + CITY HALL,,42.263178,-71.80176,,,0,,America/New_York,,,0,
4150471,243,,FRANKLIN ST + CITY HALL,,42.26178,-71.80149,,,0,,America/New_York,,,0,
4150472,298,,GRAFTON ST + FRANKLIN ST,,42.260048,-71.793733,,,0,,America/New_York,,,0,
4150473,903,,PROVIDENCE ST + WAVERLY ST,,42.255923,-71.792947,,,0,,America/New_York,,,0,
4150474,902,,PROVIDENCE ST + AETNA ST,,42.253165,-71.792605,,,0,,America/New_York,,,0,
4150475,327,,GRANITE ST + JONES ST,,42.246768,-71.788655,,,0,,America/New_York,,,0,
4150476,326,,GRANITE ST + STOWELL ST,,42.246292,-71.78767,,,0,,America/New_York,,,0,
4150477,381,,GROVE ST + BROOKFIELD ST,,42.28226,-71.806275,,,0,,America/New_York,,,0,
4150478,380,,GROVE ST + GLENNIE ST,,42.284398,-71.807562,,,0,,America/New_York,,,0,
4150479,5002A,,Church and Linwood Streets,,42.11054605,-71.66435965,,,0,,America/New_York,,,0,
4150480,3448156,,Southbridge Harrington Hospital,,42.07863446,-72.04232683,,,0,,America/New_York,,,0,
4150481,3448155,,Dudley District Court,,42.03436,-71.923289,,,0,,America/New_York,,,0,
4150482,3448154,,Dudley Housing Authority,,42.03953134,-71.91155979,,,0,,America/New_York,,,0,
4150483,3448153,,Webster Main St & Davis St,,42.04892531,-71.88479136,,,0,,America/New_York,,,0,
4150484,3448152,,Lake St & Thompson Road,,42.045578,-71.863206,,,0,,America/New_York,,,0,
4150485,3448151,,Webster Harrington Hospital,,42.02741795,-71.85051139,,,0,,America/New_York,,,0,
4150486,3448150,,Big Y Plaza,,42.06903455,-72.00870807,,,0,,America/New_York,,,0,
4150487,3448149,,North St & Optical Dr,,42.0761999,-72.02632753,,,0,,America/New_York,,,0,
4150488,3448148,,Lake St & Thompson Road,,42.0451329,-71.86280548,,,0,,America/New_York,,,0,
4150489,3448147,,Webster Main St & Davis St,,42.04911658,-71.8848681,,,0,,America/New_York,,,0,
4150490,3448133,,Route 30 McDonalds,,42.285483,-71.5977,,,0,,America/New_York,,,0,
4150491,3448121,,Linwood Mill Apt.,,42.098459,-71.6458657,,,0,,America/New_York,,,0,
4150492,5032,,New Village/Coremark,,42.11625624,-71.682024,,,0,,America/New_York,,,0,
4150493,5031,,Westborough Train Station,,42.269644,-71.647076,,,0,,America/New_York,,,0,
4150494,5030,,The Grille,,42.263993,-71.6238,,,0,,America/New_York,,,0,
4150495,5029,,Westborough High School,,42.264816,-71.6184,,,0,,America/New_York,,,0,
4150496,5028,,Fischer + Church Street,,42.269088,-71.6421,,,0,,America/New_York,,,0,
4150497,5027,,Bay State Commons,,42.270605,-71.6095,,,0,,America/New_York,,,0,
4150498,5026,,Senior Center,,42.27899884,-71.6049916,,,0,,America/New_York,,,0,
4150499,5024,,Technology Dr,,42.292457,-71.57,,,0,,America/New_York,,,0,
4150500,5023,,Research Dr,,42.287751,-71.5815,,,0,,America/New_York,,,0,
4150501,5016,,Grafton Train Station,,42.24675177,-71.68546793,,,0,,America/New_York,,,0,
4150502,5015,,Stop and Shop,,42.2202349,-71.69669137,,,0,,America/New_York,,,0,
4150503,5014,,Grafton Town Common,,42.206177,-71.68569,,,0,,America/New_York,,,0,
4150504,5012,,Fisherville,,42.1725273,-71.692459,,,0,,America/New_York,,,0,
4150505,5011,,Shaws/OSJL,,42.12510426,-71.64770731,,,0,,America/New_York,,,0,
4150506,5009,,C Street/ New Village,,42.11483717,-71.68288334,,,0,,America/New_York,,,0,
4150507,5007,,Blackstone Valley Shoppes,,42.19593567,-71.77704195,,,0,,America/New_York,,,0,
4150508,5006,,Fisherville,,42.17247562,-71.69266821,,,0,,America/New_York,,,0,
4150509,5004,,Northbridge Senior Center,,42.122513,-71.648494,,,0,,America/New_York,,,0,
4150510,5003,,Tri-County Medical,,42.12609933,-71.64152367,,,0,,America/New_York,,,0,
4150511,5002,,Church and Linwood Streets,,42.11032171,-71.66437361,,,0,,America/New_York,,,0,
4150512,5001,,Walmart,,42.10704867,-71.70032671,,,0,,America/New_York,,,0,
4150513,3626,,Big Bunny Plaza,,42.082388,-72.047346,,,0,,America/New_York,,,0,
4150514,844,,Pleasant St at Mower St,,42.281523,-71.87621,,,0,,America/New_York,,,0,
4150515,9005,,YMCA Shore Dr.,,42.3039,-71.80988,,,0,,America/New_York,,,0,
4150516,9004,,Market Basket,,42.25157,-71.72252,,,0,,America/New_York,,,0,
4150517,610,,Main St at Hitchcock,,42.246202,-71.829567,,,0,,America/New_York,,,0,
4150518,3160,,Pleasant and Tanuck Sq Inbound,,42.27872,-71.844935,,,0,,America/New_York,,,0,
4150519,575,,Main St at Mill,,42.245098,-71.833272,,,0,,America/New_York,,,0,
4150520,3647,,Millbury St + Lafayette St,,42.25295,-71.79904,,,0,,America/New_York,,,0,
4150521,3646,,Millbury St + Endicott St,,42.25116,-71.80008,,,0,,America/New_York,,,0,
4150522,3645,,Millbury St + Seymour St,,42.25001,-71.80067,,,0,,America/New_York,,,0,
4150523,3644,,Millbury St + Ashmont Ave,,42.24848,-71.80127,,,0,,America/New_York,,,0,
4150524,3643,,Ashmont Ave + Harding St,,42.24836,-71.80178,,,0,,America/New_York,,,0,
4150525,3642,,Harding St + Lafayette St,,42.25264,-71.7997,,,0,,America/New_York,,,0,
4150526,3641,,Harding St + Lamartine St,,42.25441,-71.79839,,,0,,America/New_York,,,0,
4150527,3640,,Harding St + Endicott St,,42.25083,-71.80071,,,0,,America/New_York,,,0,
4150528,3639,,Foster St & Norwich St,,42.26459,-71.80046,,,0,,America/New_York,,,0,
4150529,3638,,Sunderland Rd OPP Danvers,,42.24156,-71.75267,,,0,,America/New_York,,,0,
4150530,3637,,Sunderland Rd + Atlas St,,42.24119,-71.75054,,,0,,America/New_York,,,0,
4150531,3636,,Sunderland Rd + Lake Ave,,42.24103,-71.74872,,,0,,America/New_York,,,0,
4150532,3635,,Sunderland Rd + Southwest Plaza,,42.24086,-71.74874,,,0,,America/New_York,,,0,
4150533,3634,,Sunderland Rd OPP Atlas St,,42.24111,-71.75083,,,0,,America/New_York,,,0,
4150534,3633,,Sunderland Rd + Danvers St,,42.24137,-71.75276,,,0,,America/New_York,,,0,
4150535,1072,,Vernon St at Spurr,,42.24777,-71.79466,,,0,,America/New_York,,,0,
4150536,3631,,WORCESTER SENIOR CENTER,,42.24786,-71.79298,,,0,,America/New_York,,,0,
4150537,3630,,Main St (Southbridge) + South St IB,,42.077661,-72.038171,,,0,,America/New_York,,,0,
4150538,3629,,MAIN ST + SAYLES ST IB,,42.080476,-72.043079,,,0,,America/New_York,,,0,
4150539,3628,,Main St (Southbridge) + Hamilton St OB,,42.080602,-72.044142,,,0,,America/New_York,,,0,
4150540,3627,,MAIN ST + PINE ST OB,,42.077872,-72.038725,,,0,,America/New_York,,,0,
4150541,3626,,Big Bunny Plaza,,42.082388,-72.047346,,,0,,America/New_York,,,0,
4150542,3625,,BROAD MEADOW BROOK,,42.232956,-71.763793,,,0,,America/New_York,,,0,
4150543,3624,,Blythewood St at Blyethwood Terr,,42.236243,-71.764517,,,0,,America/New_York,,,0,
4150544,3623,,Cmabridge St + Nixon Ave,,42.244762,-71.830687,,,0,,America/New_York,,,0,
4150545,3622,,CAMBRIDGE ST + SALVATION ARMY,,42.244042,-71.82837,,,0,,America/New_York,,,0,
4150546,3621,,Cambridge Street and Freeland,,42.243789,-71.824527,,,0,,America/New_York,,,0,
4150547,3620,,CAMBRIDGE ST + EXETER ST,,42.243497,-71.825028,,,0,,America/New_York,,,0,
4150548,3619,,Cambridge Street at Price Chopper,,42.244018,-71.828988,,,0,,America/New_York,,,0,
4150549,3618,,CAMBRIDGE + WEBSTER SQ,,42.244763,-71.831031,,,0,,America/New_York,,,0,
4150550,3617,,661 Park Ave (meinke),,42.245054,-71.835859,,,0,,America/New_York,,,0,
4150551,3616,,PARK AVE + MILL ST,,42.246876,-71.83395,,,0,,America/New_York,,,0,
4150552,3615,,PARK AVE + BEAVER ST,,42.249799,-71.831305,,,0,,America/New_York,,,0,
4150553,3614,,PARK AVE + PARKER,,42.259021,-71.821871,,,0,,America/New_York,,,0,
4150554,3613,,PARK AVE + CHANDLER ST,,42.261218,-71.820695,,,0,,America/New_York,,,0,
4150555,3612,,PARK AVE + TOWNSEND ST,,42.264806,-71.818927,,,0,,America/New_York,,,0,
4150556,3611,,666 PARK AVE,,42.245391,-71.83586,,,0,,America/New_York,,,0,
4150557,3610,,Park Ave + Mill St,,42.247073,-71.834086,,,0,,America/New_York,,,0,
4150558,3609,,Park Ave + Beaver Brook Pkwy,,42.250236,-71.831153,,,0,,America/New_York,,,0,
4150559,3608,,Park Ave + Parker St,,42.258903,-71.82222,,,0,,America/New_York,,,0,
4150560,3607,,PARK AVE + CHANDLER,,42.261248,-71.820949,,,0,,America/New_York,,,0,
4150561,3606,,PARK AVE + OPP TOWNSEND ST,,42.264776,-71.819206,,,0,,America/New_York,,,0,
4150562,3604,,Neponsit Street Reliant Medical,,42.298114,-71.801966,,,0,,America/New_York,,,0,
4150563,3603,,NORTH HIGH SCHOOL,,42.26149,-71.76672,,,0,,America/New_York,,,0,
4150564,3598,,GRANITE ST and OPP WABASH AVE,,42.247498,-71.789982,,,0,,America/New_York,,,0,
4150565,3597,,GRANITE ST and WINTHROP ST,,42.247657,-71.790255,,,0,,America/New_York,,,0,
4150566,3588,,Blithewood and OPP OAKWOOD LANE,,42.235497,-71.756385,,,0,,America/New_York,,,0,
4150567,3587,,Blithewood and OPP HICKORY HILL,,42.235856,-71.761341,,,0,,America/New_York,,,0,
4150568,3586,,Blithewood and HICKORY HILL,,42.236009,-71.761249,,,0,,America/New_York,,,0,
4150569,3585,,Blithewood and Oakwood,,42.235608,-71.756218,,,0,,America/New_York,,,0,
4150570,3584,,Blithewood and Grafton,,42.23652,-71.75216,,,0,,America/New_York,,,0,
4150571,895,,Providence St at Astrid,,42.240857,-71.791497,,,0,,America/New_York,,,0,
4150572,724,,Mill St at Second,,42.255684,-71.846862,,,0,,America/New_York,,,0,
4150573,634,,Main St at Young,,42.243073,-71.840875,,,0,,America/New_York,,,0,
4150574,594,,Main St at Chatham,,42.26164,-71.803217,,,0,,America/New_York,,,0,
4150575,3100,,Rt 20 Entering Auburn,,42.212651,-71.798877,,,0,,America/New_York,,,0,
4150576,3058,,QCC Traffic Circle,,42.314272,-71.795714,,,0,,America/New_York,,,0,
4150577,3583,,LAKEWAY COMMONS INBOUND,,42.276857,-71.747125,,,0,,America/New_York,,,0,
4150578,3582,,LAKEWAY COMMONS OUTBOUND,,42.276185,-71.747334,,,0,,America/New_York,,,0,
4150579,3573,,N Main and Canal St IB Millbury,,42.19366,-71.7612,,,0,,America/New_York,,,0,
4150580,3572,,Canal St and Howe Ave IB Millbury,,42.19348,-71.7592,,,0,,America/New_York,,,0,
4150581,3571,,Canal and Elm St IB Millbury,,42.19299,-71.7574,,,0,,America/New_York,,,0,
4150582,3570,,Elm and N Main St IB Millbury,,42.191263,-71.760277,,,0,,America/New_York,,,0,
4150583,3562,,M and O Facility,,42.248022,-71.803913,,,0,,America/New_York,,,0,
4150584,3561,,Park Ave opp Russel St,,42.272283,-71.814678,,,0,,America/New_York,,,0,
4150585,3560,,Park Ave and Russel St,,42.272155,-71.814485,,,0,,America/New_York,,,0,
4150586,3559,,Park Ave and Highland St,,42.270231,-71.816362,,,0,,America/New_York,,,0,
4150587,3558,,48 Elm St,,42.265222,-71.806384,,,0,,America/New_York,,,0,
4150588,3556,,Elm and Fruit St,,42.265648,-71.81094,,,0,,America/New_York,,,0,
4150589,3555,,Elm and Russel St,,42.26609,-71.815708,,,0,,America/New_York,,,0,
4150590,3554,,Elm and park Ave,,42.266277,-71.817774,,,0,,America/New_York,,,0,
4150591,3548,,Heywood and Academy Fields,,42.248203,-71.790272,,,0,,America/New_York,,,0,
4150592,3547,,Heywood St opp Jones St,,42.248609,-71.787508,,,0,,America/New_York,,,0,
4150593,3546,,Heywood St opp Houghton St,,42.248172,-71.783583,,,0,,America/New_York,,,0,
4150594,3545,,Heywood St opp. Samoset Rd.,,42.24949,-71.780278,,,0,,America/New_York,,,0,
4150595,3544,,Heywood and Samoset Rd,,42.249389,-71.780178,,,0,,America/New_York,,,0,
4150596,3543,,Heywood and Houghton St,,42.247896,-71.784487,,,0,,America/New_York,,,0,
4150597,3542,,Heywood St and Jones St,,42.248414,-71.788045,,,0,,America/New_York,,,0,
4150598,3541,,Winthrop St and Granite St,,42.248092,-71.790688,,,0,,America/New_York,,,0,
4150599,3540,,Providence St and Shine Pool,,42.244156,-71.791548,,,0,,America/New_York,,,0,
4150600,3539,,Providence St and Ames St,,42.242103,-71.791244,,,0,,America/New_York,,,0,
4150601,3538,,Providence St and Shine Pool,,42.244103,-71.791355,,,0,,America/New_York,,,0,
4150602,3537,,Providence St and Curran Ter,,42.242629,-71.791036,,,0,,America/New_York,,,0,
4150603,3102,,Waverly St and CORAL ST out,,42.256481,-71.791583,,,0,,America/New_York,,,0,
4150604,3013,,Park Ave Grove Outbound,,42.28399,-71.80818,,,0,,America/New_York,,,0,
4150605,3531,,TOBIAS BOLAND AT SAMS CLUB,,42.230551,-71.787019,,,0,,America/New_York,,,0,
4150606,3530,,UNION STATION GARAGE FRANKLIN ST,,42.260203,-71.79518,,,0,,America/New_York,,,0,
4150607,3536,,LINCOLN STREET NATL GUARD ARMORY,,42.297096,-71.760293,,,0,,America/New_York,,,0,
4150608,3535,,BLACKSTONE RIVER ROAD & IMPERIAL DIST OUTBOUND,,42.228814,-71.789086,,,0,,America/New_York,,,0,
4150609,3532,,TOBIAS BOLAND AND BLACKSTONE RIVER ROAD,,42.228112,-71.786897,,,0,,America/New_York,,,0,
4150610,3533,,TOBIAS BOLAND AND BLACKSTONE RIVER ROAD,,42.228124,-71.786724,,,0,,America/New_York,,,0,
4150611,3534,,BLACKSTONE RIVER ROAD & IMPERIAL DIST,,42.228756,-71.789233,,,0,,America/New_York,,,0,
4150612,3528,,SUMMER AND BRIDGE STREET,,42.263621,-71.795101,,,0,,America/New_York,,,0,
4150613,3527,,SUMMER AND MLK IN,,42.26597,-71.795605,,,0,,America/New_York,,,0,
4150614,3526,,SUMMER AND MLK,,42.266038,-71.795384,,,0,,America/New_York,,,0,
4150615,3525,,SUMMER AND ASYLUM,,42.263801,-71.794916,,,0,,America/New_York,,,0,
4150616,1208,,GODDARD DR + COPPAGE DR,,42.25872,-71.866403,,,0,,America/New_York,,,0,
4150617,3523,,EAST BROOKFIELD COURTHOUSE CUMBERLAND FARMS,,42.23209,-72.029537,,,0,,America/New_York,,,0,
4150618,3503,,GREAT BROOK VALLEY POOL,,42.310743,-71.775653,,,0,,America/New_York,,,0,
4150619,3502,,COPPAGE DR EOL,,42.261765,-71.869917,,,0,,America/New_York,,,0,
4150620,3522,,END OF LINE JULIO DRIVE,,42.291328,-71.701553,,,0,,America/New_York,,,0,
4150621,3500,,PORTER AND CHESTER SCHOOL,,42.317952,-71.800442,,,0,,America/New_York,,,0,
4150622,3521,,SOUTHWEST COMMONS NEW STOP,,42.240148,-71.747282,,,0,,America/New_York,,,0,
4150623,3163,,PLEASANT ST + MAIN ST,,42.263491,-71.802751,,,0,,America/New_York,,,0,
4150624,3162,,PLEASANT ST + PIEDMONT ST,,42.26394,-71.812786,,,0,,America/New_York,,,0,
4150625,3161,,PLEASANT ST + BRANTWOOD RD INBOUND,,42.278757,-71.845625,,,0,,America/New_York,,,0,
4150626,3159,,PLEASANT ST + BRANTWOOD RD,,42.278719,-71.844935,,,0,,America/New_York,,,0,
4150627,3153,,HIGHLAND ST + LANCASTER ST,,42.271285,-71.803562,,,0,,America/New_York,,,0,
4150628,3149,,FRONT ST + CHURCH ST,,42.262691,-71.800256,,,0,,America/New_York,,,0,
4150629,3145,,CHANDLER ST + MAY 2,,42.270621,-71.843894,,,0,,America/New_York,,,0,
4150630,3144,,CHANDLER ST + MAY,,42.267288,-71.839461,,,0,,America/New_York,,,0,
4150631,3143,,CHANDLER ST + LOVELL,,42.262739,-71.828287,,,0,,America/New_York,,,0,
4150632,3107,,APRICOT ST + GODDARD,,42.241658,-71.853667,,,0,,America/New_York,,,0,
4150633,3103,,MYRTLE STREET (LIBRARY),,42.259031,-71.801358,,,0,,America/New_York,,,0,
4150634,3104,,MYRTLE STREET (LIBRARY),,42.259158,-71.801578,,,0,,America/New_York,,,0,
4150635,3130,,HUB CENTER,,42.26079,-71.79654,,,0,,America/New_York,,,0,
4150636,3133,,FRONT STREET INBOUND,,42.262417,-71.79967,,,0,,America/New_York,,,0,
4150637,3134,,FRONT STREET OUTBOUND,,42.262018,-71.798487,,,0,,America/New_York,,,0,
4150638,495,,JUNE ST + COMMODORE RD,,42.268337,-71.827565,,,0,,America/New_York,,,0,
4150639,494,,JUNE ST + BERKMANS ST,,42.26732,-71.82902,,,0,,America/New_York,,,0,
4150640,493,,JUNE ST + BROWNELL ST,,42.266453,-71.830292,,,0,,America/New_York,,,0,
4150641,492,,JUNE ST + EDGEWOOD ST,,42.265563,-71.83157,,,0,,America/New_York,,,0,
4150642,1174,,JUNE ST + CARLISE ST,,42.264602,-71.832962,,,0,,America/New_York,,,0,
4150643,491,,JUNE ST + COURTLAND ST,,42.263735,-71.8349,,,0,,America/New_York,,,0,
4150644,490,,JUNE ST + MAY ST,,42.263315,-71.83618,,,0,,America/New_York,,,0,
4150645,700,,MAY ST + UNDERWOOD ST,,42.264165,-71.837873,,,0,,America/New_York,,,0,
4150646,701,,MAY ST + ZENITH DR,,42.265802,-71.839622,,,0,,America/New_York,,,0,
4150647,698,,MAY ST + WSU,,42.266898,-71.840383,,,0,,America/New_York,,,0,
4150648,6070,,AUBURN ST + BRYN MAWR ST,,42.213628,-71.842482,,,0,,America/New_York,,,0,
4150649,6060,,OXFORD ST NORTH + AUBURN ST,,42.214685,-71.846003,,,0,,America/New_York,,,0,
4150650,6055,,OXFORD ST NORTH + ROCHDALE ST,,42.218182,-71.845367,,,0,,America/New_York,,,0,
4150651,6050,,PINEHURST AVE + OTIS ST,,42.223228,-71.847203,,,0,,America/New_York,,,0,
4150652,945,,SOUTH LUDLOW ST + MOSS ST,,42.227638,-71.848697,,,0,,America/New_York,,,0,
4150653,944,,SOUTH LUDLOW ST + KEEN ST,,42.228387,-71.848863,,,0,,America/New_York,,,0,
4150654,942,,SOUTH LUDLOW ST + LAURIER ST,,42.230388,-71.84934,,,0,,America/New_York,,,0,
4150655,1234,,JAMES ST + 70 JAMES ST,,42.2324,-71.849667,,,0,,America/New_York,,,0,
4150656,1233,,JAMES ST + GENESEE ST,,42.234608,-71.849802,,,0,,America/New_York,,,0,
4150657,1001,,STAFFORD ST + GRANDVIEW AVE,,42.235983,-71.849715,,,0,,America/New_York,,,0,
4150658,1000,,STAFFORD ST + EUREKA ST,,42.236612,-71.848625,,,0,,America/New_York,,,0,
4150659,999,,STAFFORD ST + HENSHAW ST,,42.23739,-71.847258,,,0,,America/New_York,,,0,
4150660,997,,STAFFORD ST + VARNUM ST,,42.238917,-71.844683,,,0,,America/New_York,,,0,
4150661,996,,STAFFORD ST + CURTIS PKWY,,42.240053,-71.842737,,,0,,America/New_York,,,0,
4150662,995,,STAFFORD ST + WEBSTER SQ PLAZA,,42.240743,-71.841767,,,0,,America/New_York,,,0,
4150663,994,,STAFFORD ST + YOUNG ST,,42.241992,-71.840075,,,0,,America/New_York,,,0,
4150664,993,,Stafford St at Webster Sq,,42.24339,-71.838167,,,0,,America/New_York,,,0,
4150665,1011,,STAFFORD ST + WEBSTER SQ,,42.243335,-71.83808,,,0,,America/New_York,,,0,
4150666,1010,,STAFFORD ST + YOUNG ST,,42.241952,-71.839995,,,0,,America/New_York,,,0,
4150667,1009,,STAFFORD ST + WEBSTER SQ PLAZA,,42.24099,-71.84129,,,0,,America/New_York,,,0,
4150668,1008,,STAFFORD ST + HEARD ST,,42.239813,-71.842967,,,0,,America/New_York,,,0,
4150669,1007,,STAFFORD ST + VARNUM ST,,42.238877,-71.844597,,,0,,America/New_York,,,0,
4150670,1005,,STAFFORD ST + HENSHAW ST,,42.23751,-71.846885,,,0,,America/New_York,,,0,
4150671,1004,,STAFFORD ST + EUREKA ST,,42.236698,-71.8483,,,0,,America/New_York,,,0,
4150672,481,,JAMES ST + AIRPORT CIRCLE,,42.235633,-71.84985,,,0,,America/New_York,,,0,
4150673,480,,JAMES ST + GENESEE ST,,42.234458,-71.849658,,,0,,America/New_York,,,0,
4150674,479,,JAMES ST + 70 JAMES ST,,42.232423,-71.84958,,,0,,America/New_York,,,0,
4150675,949,,SOUTH LUDLOW ST + LAURIER ST,,42.230968,-71.849348,,,0,,America/New_York,,,0,
4150676,948,,SOUTH LUDLOW ST + CLOVER ST,,42.229475,-71.849023,,,0,,America/New_York,,,0,
4150677,947,,SOUTH LUDLOW ST + KEEN ST,,42.22837,-71.848777,,,0,,America/New_York,,,0,
4150678,946,,SOUTH LUDLOW ST + MOSS ST,,42.227647,-71.848633,,,0,,America/New_York,,,0,
4150679,6130,,PINEHURST AVE + OTIS ST,,42.223148,-71.84702,,,0,,America/New_York,,,0,
4150680,6125,,OXFORD ST NORTH + ROCHDALE ST,,42.21788,-71.845327,,,0,,America/New_York,,,0,
4150681,6120,,OXFORD ST NORTH + AUBURN ST,,42.214677,-71.845947,,,0,,America/New_York,,,0,
4150682,1028,,TACOMA ST + CONSTITUTION AVE 2,,42.30716,-71.774637,,,0,,America/New_York,,,0,
4150683,1027,,TACOMA ST + CHINO AVE,,42.306627,-71.773523,,,0,,America/New_York,,,0,
4150684,1196,,TACOMA ST + NEW VISTA LN,,42.306405,-71.772553,,,0,,America/New_York,,,0,
4150685,1026,,TACOMA ST + CONSTITUTION AVE 1,,42.306245,-71.770575,,,0,,America/New_York,,,0,
4150686,1029,,TACOMA ST + 67 TACOMA ST,,42.305013,-71.768175,,,0,,America/New_York,,,0,
4150687,1195,,TACOMA ST + 57 TACOMA ST,,42.30425,-71.76754,,,0,,America/New_York,,,0,
4150688,1030,,TACOMA ST + GREAT BROOK VALLEY AVE 1,,42.302558,-71.766005,,,0,,America/New_York,,,0,
4150689,1031,,TACOMA ST + PASADENA PKWY 2,,42.301715,-71.76525,,,0,,America/New_York,,,0,
4150690,46,,BOYLSTON ST + CHINO AVE,,42.299467,-71.765973,,,0,,America/New_York,,,0,
4150691,532,,LINCOLN ST + DENNYS,,42.294555,-71.774748,,,0,,America/New_York,,,0,
4150692,47,,BOYLSTON ST + CHINO AVE,,42.298878,-71.766347,,,0,,America/New_York,,,0,
4150693,1022,,TACOMA ST + PASADENA PKWY 2,,42.301502,-71.76514,,,0,,America/New_York,,,0,
4150694,1023,,TACOMA ST + GREAT BROOK VALLEY AVE 1,,42.302748,-71.766252,,,0,,America/New_York,,,0,
4150695,1021,,TACOMA ST + PASADENA PKWY 1,,42.304212,-71.767572,,,0,,America/New_York,,,0,
4150696,1024,,TACOMA ST + GREAT BROOK VALLEY AVE 2,,42.305062,-71.768223,,,0,,America/New_York,,,0,
4150697,1025,,TACOMA ST + 134 TACOMA ST,,42.306205,-71.770377,,,0,,America/New_York,,,0,
4150698,1225,,TACOMA ST + NEW VISTA LN,,42.306348,-71.77234,,,0,,America/New_York,,,0,
4150699,1224,,TACOMA ST + CHINO AVE,,42.306547,-71.773468,,,0,,America/New_York,,,0,
4150700,1223,,TACOMA ST + CONSTITUTION AVE 2,,42.307557,-71.775065,,,0,,America/New_York,,,0,
4150701,6160,,SOUTHBRIDGE ST + SWANSON ST,,42.20375,-71.837125,,,0,,America/New_York,,,0,
4150702,6155,,SOUTHBRIDGE ST + AUBURN ST,,42.206492,-71.833525,,,0,,America/New_York,,,0,
4150703,6150,,SOUTHBRIDGE ST + HAMPTON ST,,42.21168,-71.828925,,,0,,America/New_York,,,0,
4150704,6145,,SOUTHBRIDGE ST + SWORD ST,,42.223077,-71.823497,,,0,,America/New_York,,,0,
4150705,6140,,SOUTHBRIDGE ST + ELMWOOD ST,,42.228878,-71.820492,,,0,,America/New_York,,,0,
4150706,1230,,SOUTHBRIDGE ST + HOPE AVE,,42.230937,-71.81922,,,0,,America/New_York,,,0,
4150707,1229,,SOUTHBRIDGE ST + 982 SOUTHBRIDGE ST,,42.233115,-71.818355,,,0,,America/New_York,,,0,
4150708,960,,SOUTHBRIDGE ST + MALVERN RD,,42.235348,-71.816677,,,0,,America/New_York,,,0,
4150709,958,,SOUTHBRIDGE ST + CROMPTON ST,,42.241848,-71.812155,,,0,,America/New_York,,,0,
4150710,120,,CANTERBURY ST + CAMBRIDGE ST,,42.243907,-71.822217,,,0,,America/New_York,,,0,
4150711,119,,CANTERBURY ST + SOUTH CRYSTAL ST,,42.244447,-71.821358,,,0,,America/New_York,,,0,
4150712,118,,CANTERBURY ST + WALPOLE ST,,42.245727,-71.819245,,,0,,America/New_York,,,0,
4150713,117,,CANTERBURY ST + GRAND ST,,42.247555,-71.8164,,,0,,America/New_York,,,0,
4150714,116,,CANTERBURY ST + GARDNER ST,,42.249088,-71.813967,,,0,,America/New_York,,,0,
4150715,115,,CANTERBURY ST + HAMMOND ST 2,,42.249978,-71.812553,,,0,,America/New_York,,,0,
4150716,114,,CANTERBURY ST + HAMMOND ST 1,,42.25129,-71.810502,,,0,,America/New_York,,,0,
4150717,951,,SOUTHBRIDGE ST + LAFAYETTE ST,,42.253062,-71.807547,,,0,,America/New_York,,,0,
4150718,950,,SOUTHBRIDGE ST + MADISON ST,,42.258125,-71.803913,,,0,,America/New_York,,,0,
4150719,1219,,SOUTHBRIDGE ST + DMV,,42.259515,-71.803675,,,0,,America/New_York,,,0,
4150720,1228,,SOUTHBRIDGE ST + HOPE AVE,,42.230993,-71.819245,,,0,,America/New_York,,,0,
4150721,6225,,SOUTHBRIDGE ST + ELMWOOD ST,,42.228473,-71.820658,,,0,,America/New_York,,,0,
4150722,6220,,SOUTHBRIDGE ST + SWORD ST,,42.223108,-71.823408,,,0,,America/New_York,,,0,
4150723,6215,,SOUTHBRIDGE ST + HAMPTON ST,,42.211777,-71.828757,,,0,,America/New_York,,,0,
4150724,6210,,SOUTHBRIDGE ST + AUBURN ST,,42.206825,-71.832913,,,0,,America/New_York,,,0,
4150725,6090,,AUBURN MALL,,42.202422,-71.836157,,,0,,America/New_York,,,0,
4150726,973,,SOUTHBRIDGE ST + DMV,,42.259475,-71.803525,,,0,,America/New_York,,,0,
4150727,972,,SOUTHBRIDGE ST + QUINSIGAMOND AVE,,42.253675,-71.807005,,,0,,America/New_York,,,0,
4150728,971,,SOUTHBRIDGE ST + LAFAYETTE ST,,42.252482,-71.807817,,,0,,America/New_York,,,0,
4150729,126,,CANTERBURY ST + HAMMOND ST,,42.251353,-71.810343,,,0,,America/New_York,,,0,
4150730,125,,CANTERBURY ST + 47 CANTERBURY ST,,42.249335,-71.813498,,,0,,America/New_York,,,0,
4150731,124,,CANTERBURY ST + GARDNER ST,,42.24854,-71.81473,,,0,,America/New_York,,,0,
4150732,123,,CANTERBURY ST + GRAND ST,,42.24726,-71.81678,,,0,,America/New_York,,,0,
4150733,122,,CANTERBURY ST + WALPOLE ST,,42.245672,-71.81934,,,0,,America/New_York,,,0,
4150734,121,,CANTERBURY ST + SOUTH CRYSTAL ST,,42.244202,-71.821685,,,0,,America/New_York,,,0,
4150735,965,,SOUTHBRIDGE ST + CROMPTON ST,,42.241768,-71.811997,,,0,,America/New_York,,,0,
4150736,964,,SOUTHBRIDGE ST + COLLEGE ST,,42.239433,-71.813347,,,0,,America/New_York,,,0,
4150737,963,,SOUTHBRIDGE ST + BOYDEN ST,,42.237223,-71.814857,,,0,,America/New_York,,,0,
4150738,962,,SOUTHBRIDGE ST + KENDIG ST,,42.236285,-71.815803,,,0,,America/New_York,,,0,
4150739,961,,SOUTHBRIDGE ST + MALVERN RD,,42.235578,-71.816518,,,0,,America/New_York,,,0,
4150740,1217,,SOUTHBRIDGE ST + 982 SOUTHBRIDGE ST,,42.232955,-71.81841,,,0,,America/New_York,,,0,
4150741,1214,,SEABURY HEIGHTS,,42.272272,-71.78155,,,0,,America/New_York,,,0,
4150742,786,,NORTH LAKE AVE + NORTH LAKE AVE,,42.278097,-71.75921,,,0,,America/New_York,,,0,
4150743,15,,BELMONT ST + MCRAE CT,,42.273582,-71.774072,,,0,,America/New_York,,,0,
4150744,14,,BELMONT ST + PRENTICE ST,,42.273567,-71.77528,,,0,,America/New_York,,,0,
4150745,609,,MAIN ST + CAMBRIDGE ST,,42.245473,-71.83142,,,0,,America/New_York,,,0,
4150746,608,,MAIN ST + LUCIAN ST,,42.246705,-71.828813,,,0,,America/New_York,,,0,
4150747,607,,MAIN ST + MARBLE ST,,42.247682,-71.82708,,,0,,America/New_York,,,0,
4150748,605,,MAIN ST + BEAVER ST,,42.249303,-71.824077,,,0,,America/New_York,,,0,
4150749,604,,MAIN ST + GATES ST,,42.249963,-71.822852,,,0,,America/New_York,,,0,
4150750,603,,MAIN ST + HAWTHORNE ST,,42.251402,-71.820182,,,0,,America/New_York,,,0,
4150751,602,,MAIN ST + NORWOOD ST,,42.252482,-71.818172,,,0,,America/New_York,,,0,
4150752,601,,MAIN ST + CLAREMONT ST,,42.25365,-71.816042,,,0,,America/New_York,,,0,
4150753,600,,MAIN ST + MAY ST,,42.254437,-71.814762,,,0,,America/New_York,,,0,
4150754,599,,MAIN ST + OREAD PL,,42.255677,-71.81225,,,0,,America/New_York,,,0,
4150755,597,,MAIN ST + JACKSON ST,,42.256782,-71.810082,,,0,,America/New_York,,,0,
4150756,596,,MAIN ST + WELLINGTON ST,,42.2581,-71.807657,,,0,,America/New_York,,,0,
4150757,1182,,MAIN ST + FEDERAL COURT HOUSE,,42.260812,-71.803858,,,0,,America/New_York,,,0,
4150758,8055,,MAIN ST + BOND ST,,42.25648,-71.959077,,,0,,America/New_York,,,0,
4150759,8050,,MAIN ST + DAVID PROUTY HIGH SCHOOL,,42.250893,-71.978175,,,0,,America/New_York,,,0,
4150760,8045,,MAIN ST + SPENCER TOWN HALL,,42.244225,-71.992162,,,0,,America/New_York,,,0,
4150761,8040,,MAIN ST + SPENCER CENTER,,42.243907,-71.994538,,,0,,America/New_York,,,0,
4150762,8035,,MEADOW RD + MAIN ST,,42.234505,-72.012037,,,0,,America/New_York,,,0,
4150763,8030,,SPENCER DPW,,42.237803,-72.00955,,,0,,America/New_York,,,0,
4150764,625,,MAIN ST + LUDLOW ST,,42.239727,-71.856247,,,0,,America/New_York,,,0,
4150765,624,,MAIN ST + GOULD HILL RD,,42.240338,-71.86053,,,0,,America/New_York,,,0,
4150766,622,,MAIN ST + LEICESTER LINE,,42.240625,-71.863337,,,0,,America/New_York,,,0,
4150767,7560,,MAIN ST + GERALD CT,,42.242373,-71.867445,,,0,,America/New_York,,,0,
4150768,7555,,MAIN ST + AUBURN ST,,42.240387,-71.879993,,,0,,America/New_York,,,0,
4150769,7550,,MAIN ST + HENSHAW ST,,42.245505,-71.89913,,,0,,America/New_York,,,0,
4150770,7545,,MAIN ST + LEICESTER CENTER,,42.246028,-71.908692,,,0,,America/New_York,,,0,
4150771,7540,,MAIN ST + PINE ST,,42.245497,-71.913475,,,0,,America/New_York,,,0,
4150772,7535,,MAIN ST + 1530 MAIN ST,,42.24552,-71.932335,,,0,,America/New_York,,,0,
4150773,7530,,SOOJIANS DR + LEICESTER WALMART,,42.249748,-71.936785,,,0,,America/New_York,,,0,
4150774,1152,,SOUTH HIGH,,42.244067,-71.863257,,,0,,America/New_York,,,0,
4150775,647,,MAIN ST + DMV,,42.259873,-71.80474,,,0,,America/New_York,,,0,
4150776,619,,MAIN ST + IONIC AVE,,42.258808,-71.806187,,,0,,America/New_York,,,0,
4150777,646,,MAIN ST + HERMON ST,,42.25772,-71.808127,,,0,,America/New_York,,,0,
4150778,617,,MAIN ST + LAGRANGE ST,,42.256328,-71.810708,,,0,,America/New_York,,,0,
4150779,644,,MAIN ST + BENEFIT ST,,42.255447,-71.812442,,,0,,America/New_York,,,0,
4150780,643,,MAIN ST + HAMMOND ST,,42.254293,-71.81473,,,0,,America/New_York,,,0,
4150781,616,,MAIN ST + RIPLEY ST,,42.253357,-71.81624,,,0,,America/New_York,,,0,
4150782,615,,MAIN ST + GARDNER ST,,42.252132,-71.818545,,,0,,America/New_York,,,0,
4150783,614,,MAIN ST + WYMAN ST,,42.251353,-71.820007,,,0,,America/New_York,,,0,
4150784,642,,MAIN ST + CRYSTAL ST,,42.249725,-71.823035,,,0,,America/New_York,,,0,
4150785,641,,MAIN ST + FREELAND ST,,42.24835,-71.82557,,,0,,America/New_York,,,0,
4150786,612,,MAIN ST + LOWELL ST,,42.247642,-71.82689,,,0,,America/New_York,,,0,
4150787,611,,MAIN ST + TIRRELL ST,,42.246903,-71.828305,,,0,,America/New_York,,,0,
4150788,640,,MAIN ST + ARENA PLAZA,,42.245775,-71.83053,,,0,,America/New_York,,,0,
4150789,637,,MAIN ST + CURTIS ST,,42.244805,-71.83436,,,0,,America/New_York,,,0,
4150790,636,,MAIN ST + ARBOR VITAE ST,,42.24424,-71.837285,,,0,,America/New_York,,,0,
4150791,635,,MAIN ST + MONTAGUE ST,,42.243478,-71.839725,,,0,,America/New_York,,,0,
4150792,648,,MAIN ST + HOLLAND RD,,42.242612,-71.84257,,,0,,America/New_York,,,0,
4150793,633,,MAIN ST + CURTIS PKWY,,42.2425,-71.844152,,,0,,America/New_York,,,0,
4150794,631,,MAIN ST + BLAINE AVE,,42.24196,-71.846638,,,0,,America/New_York,,,0,
4150795,630,,MAIN ST + HENSHAW ST,,42.241627,-71.848108,,,0,,America/New_York,,,0,
4150796,629,,MAIN ST + EUREKA TER,,42.24134,-71.84946,,,0,,America/New_York,,,0,
4150797,628,,MAIN ST + GRANDVIEW AVE,,42.240967,-71.851573,,,0,,America/New_York,,,0,
4150798,627,,MAIN ST + STEARNS ST,,42.24068,-71.853585,,,0,,America/New_York,,,0,
4150799,1209,,GODDARD DR + LOWER PARSONS HILL DR,,42.24343,-71.856167,,,0,,America/New_York,,,0,
4150800,250,,GODDARD DR + UPPER PARSONS HILL DR,,42.247428,-71.861175,,,0,,America/New_York,,,0,
4150801,251,,GODDARD DR + 135 GODDARD DR,,42.254255,-71.866833,,,0,,America/New_York,,,0,
4150802,1151,,WORCESTER AIRPORT,,42.269465,-71.870273,,,0,,America/New_York,,,0,
4150803,540,,LINCOLN ST + DENNYS,,42.294627,-71.775122,,,0,,America/New_York,,,0,
4150804,539,,LINCOLN ST + MCDONALDS OPPOSITE LINCOLN PLAZA,,42.295445,-71.772633,,,0,,America/New_York,,,0,
4150805,538,,LINCOLN ST + PASADENA PKWY,,42.29678,-71.76916,,,0,,America/New_York,,,0,
4150806,537,,LINCOLN ST + BOYLSTON ST,,42.297607,-71.767785,,,0,,America/New_York,,,0,
4150807,1207,,LINCOLN ST + 640 LINCOLN ST,,42.297805,-71.764527,,,0,,America/New_York,,,0,
4150808,437,,LINCOLN ST + HAVEN LANE,,42.29736,-71.76092,,,0,,America/New_York,,,0,
4150809,1206,,NORTH LAKE AVE + 425 NORTH LAKE AVE,,42.294357,-71.758742,,,0,,America/New_York,,,0,
4150810,808,,PLANTATION ST + 630 PLANTATION ST,,42.292012,-71.76049,,,0,,America/New_York,,,0,
4150811,785,,PLANTATION ST + NATURAL HISTORY RD,,42.289867,-71.760467,,,0,,America/New_York,,,0,
4150812,1205,,PLANTATION ST + NOTRE DAME,,42.287848,-71.762,,,0,,America/New_York,,,0,
4150813,1269,,PLANTATION ST + WINCO ST,,42.283492,-71.762637,,,0,,America/New_York,,,0,
4150814,1204,,PLANTATION ST + NORTH RD,,42.278637,-71.76502,,,0,,America/New_York,,,0,
4150815,500,,LAKE AVE + BELMONT ST,,42.273765,-71.758853,,,0,,America/New_York,,,0,
4150816,501,,LAKE AVE + LINCOLN PARK TOWERS,,42.272628,-71.758965,,,0,,America/New_York,,,0,
4150817,507,,LAKE AVE + LAKEVIEW ST,,42.2684,-71.755642,,,0,,America/New_York,,,0,
4150818,505,,LAKE AVE + ANNA ST,,42.266373,-71.755205,,,0,,America/New_York,,,0,
4150819,506,,LAKE AVE + OTHELLO RD,,42.264817,-71.754585,,,0,,America/New_York,,,0,
4150820,504,,LAKE AVE + LAKE PARK,,42.261972,-71.753973,,,0,,America/New_York,,,0,
4150821,502,,LAKE AVE + HAMILTON ST,,42.260445,-71.75368,,,0,,America/New_York,,,0,
4150822,407,,HAMILTON ST + PARK ROAD ENTRANCE,,42.25996,-71.75573,,,0,,America/New_York,,,0,
4150823,406,,HAMILTON ST + COBURN AVE,,42.259507,-71.759138,,,0,,America/New_York,,,0,
4150824,404,,HAMILTON ST + BOSTON AVE,,42.258848,-71.76208,,,0,,America/New_York,,,0,
4150825,402,,HAMILTON ST + COMMONWEALTH AVE,,42.259285,-71.764655,,,0,,America/New_York,,,0,
4150826,401,,HAMILTON ST + HAROLD ST,,42.258998,-71.765338,,,0,,America/New_York,,,0,
4150827,399,,HAMILTON ST + ERNEST AVE,,42.257807,-71.767443,,,0,,America/New_York,,,0,
4150828,398,,HAMILTON ST + ELMIRE AVE,,42.257353,-71.768915,,,0,,America/New_York,,,0,
4150829,397,,HAMILTON ST + TRAHAN AVE,,42.257075,-71.76982,,,0,,America/New_York,,,0,
4150830,395,,HAMILTON ST + WARNER AVE,,42.256328,-71.773047,,,0,,America/New_York,,,0,
4150831,393,,HAMILTON ST + DELMONT AVE,,42.256202,-71.776012,,,0,,America/New_York,,,0,
4150832,391,,HAMILTON ST + PILGRIM AVE,,42.256082,-71.778475,,,0,,America/New_York,,,0,
4150833,389,,HAMILTON ST + INGLESIDE AVE,,42.255972,-71.780517,,,0,,America/New_York,,,0,
4150834,388,,HAMILTON ST + PLANTATION ST,,42.255907,-71.782052,,,0,,America/New_York,,,0,
4150835,387,,HAMILTON ST + DUPONT ST,,42.255757,-71.784292,,,0,,America/New_York,,,0,
4150836,263,,GRAFTON ST + HOUGHTON ST,,42.2559,-71.785993,,,0,,America/New_York,,,0,
4150837,262,,GRAFTON ST + MENDON ST,,42.256178,-71.787963,,,0,,America/New_York,,,0,
4150838,261,,GRAFTON ST + WAVERLY ST,,42.25652,-71.789927,,,0,,America/New_York,,,0,
4150839,260,,GRAFTON ST + CORAL ST,,42.257393,-71.791492,,,0,,America/New_York,,,0,
4150840,1202,,PLANTATION TOWERS,,42.28602,-71.765235,,,0,,America/New_York,,,0,
4150841,297,,GRAFTON ST + PENN AVE,,42.257275,-71.791063,,,0,,America/New_York,,,0,
4150842,319,,GRAFTON ST + MENDON ST,,42.256472,-71.789235,,,0,,America/New_York,,,0,
4150843,305,,GRAFTON ST + FAY ST,,42.256202,-71.787622,,,0,,America/New_York,,,0,
4150844,304,,GRAFTON ST + ORIENT ST,,42.25601,-71.785683,,,0,,America/New_York,,,0,
4150845,424,,HAMILTON ST + PLANTATION ST,,42.256098,-71.782265,,,0,,America/New_York,,,0,
4150846,412,,HAMILTON ST + INGLESIDE AVE,,42.256202,-71.780192,,,0,,America/New_York,,,0,
4150847,411,,HAMILTON ST + PILGRIM AVE,,42.256288,-71.778562,,,0,,America/New_York,,,0,
4150848,422,,HAMILTON ST + DELMONT AVE,,42.256432,-71.776043,,,0,,America/New_York,,,0,
4150849,409,,HAMILTON ST + WARNER AVE,,42.256558,-71.773388,,,0,,America/New_York,,,0,
4150850,421,,HAMILTON ST + GORDON ST,,42.257083,-71.770503,,,0,,America/New_York,,,0,
4150851,420,,HAMILTON ST + HARRINGTON WAY,,42.257513,-71.769128,,,0,,America/New_York,,,0,
4150852,418,,HAMILTON ST + ANDERSON AVE,,42.258363,-71.766857,,,0,,America/New_York,,,0,
4150853,417,,HAMILTON ST + HAROLD ST,,42.258935,-71.765933,,,0,,America/New_York,,,0,
4150854,415,,HAMILTON ST + RALPH AVE,,42.259563,-71.764328,,,0,,America/New_York,,,0,
4150855,414,,HAMILTON ST + MIDDLESEX AVE,,42.259492,-71.763375,,,0,,America/New_York,,,0,
4150856,413,,HAMILTON ST + PALISADES ST,,42.259285,-71.76026,,,0,,America/New_York,,,0,
4150857,426,,HAMILTON ST + COBURN AVE,,42.259825,-71.758448,,,0,,America/New_York,,,0,
4150858,425,,HAMILTON ST + PARK ROAD ENTRANCE,,42.260017,-71.755682,,,0,,America/New_York,,,0,
4150859,510,,LAKE AVE + HAMILTON ST,,42.260422,-71.754028,,,0,,America/New_York,,,0,
4150860,503,,LAKE AVE + NONQUIT ST,,42.261892,-71.754292,,,0,,America/New_York,,,0,
4150861,511,,LAKE AVE + OTHELLO RD,,42.264665,-71.754792,,,0,,America/New_York,,,0,
4150862,512,,LAKE AVE + ANNA ST,,42.266413,-71.755492,,,0,,America/New_York,,,0,
4150863,513,,LAKE AVE + LAKEVIEW ST,,42.268147,-71.755842,,,0,,America/New_York,,,0,
4150864,509,,LAKE AVE + WIGWAM AVE,,42.27204,-71.759132,,,0,,America/New_York,,,0,
4150865,1203,,PLANTATION ST + NORTH RD,,42.279145,-71.764893,,,0,,America/New_York,,,0,
4150866,1270,,PLANTATION ST + PLANTATION TOWERS,,42.283715,-71.762675,,,0,,America/New_York,,,0,
4150867,809,,PLANTATION ST + NOTRE DAME,,42.288245,-71.761992,,,0,,America/New_York,,,0,
4150868,1201,,630 PLANTATION ST,,42.292465,-71.759847,,,0,,America/New_York,,,0,
4150869,1200,,NORTH LAKE AVE + 425 NORTH LAKE AVE,,42.294348,-71.758797,,,0,,America/New_York,,,0,
4150870,1199,,LINCOLN ST + 640 LINCOLN ST,,42.297638,-71.76463,,,0,,America/New_York,,,0,
4150871,536,,LINCOLN ST + BENSON AVE,,42.297575,-71.76754,,,0,,America/New_York,,,0,
4150872,535,,LINCOLN ST + PASADENA PKWY,,42.296478,-71.769415,,,0,,America/New_York,,,0,
4150873,534,,LINCOLN ST + TYLER PRENTICE RD,,42.295772,-71.770885,,,0,,America/New_York,,,0,
4150874,533,,LINCOLN ST + MCDONALDS,,42.295247,-71.772713,,,0,,America/New_York,,,0,
4150875,1157,,STOP & SHOP LINCOLN PLAZA,,42.29407,-71.771855,,,0,,America/New_York,,,0,
4150876,1156,,TARGET LINCOLN PLAZA,,42.292537,-71.7747,,,0,,America/New_York,,,0,
4150877,4520,,MAPLE AVE + FAIRLAWN PLAZA,,42.276412,-71.736545,,,0,,America/New_York,,,0,
4150878,4515,,BOSTON TRPK + SVENSON RD,,42.275092,-71.744342,,,0,,America/New_York,,,0,
4150879,4510,,BOSTON TRPK + WHITE CITY PLAZA,,42.274583,-71.750318,,,0,,America/New_York,,,0,
4150880,4505,,BOSTON TRPK + QUINSIGAMOND AVE,,42.274337,-71.752495,,,0,,America/New_York,,,0,
4150881,16,,BELMONT ST + LAKE AVE,,42.274067,-71.758503,,,0,,America/New_York,,,0,
4150882,1148,,SOUTH RD + UNIVERSITY OF MASSACHUSETTS,,42.275688,-71.7615,,,0,,America/New_York,,,0,
4150883,930,,SHREWSBURY ST + AITCHISON ST,,42.273288,-71.770503,,,0,,America/New_York,,,0,
4150884,929,,SHREWSBURY ST + DANIELS ST,,42.272652,-71.771918,,,0,,America/New_York,,,0,
4150885,928,,SHREWSBURY ST + PRENTICE ST,,42.271222,-71.774987,,,0,,America/New_York,,,0,
4150886,927,,SHREWSBURY ST + HECLA ST,,42.27057,-71.776258,,,0,,America/New_York,,,0,
4150887,926,,SHREWSBURY ST + ADAMS ST,,42.269887,-71.777537,,,0,,America/New_York,,,0,
4150888,925,,SHREWSBURY ST + PUTNAM LN,,42.269298,-71.778697,,,0,,America/New_York,,,0,
4150889,924,,SHREWSBURY ST + ENVELOPE TER,,42.26836,-71.780525,,,0,,America/New_York,,,0,
4150890,923,,SHREWSBURY ST + CAMASSA TER,,42.267455,-71.782377,,,0,,America/New_York,,,0,
4150891,922,,SHREWSBURY ST + FANTASIA DR,,42.266628,-71.783975,,,0,,America/New_York,,,0,
4150892,921,,SHREWSBURY ST + CROSS ST,,42.264507,-71.788052,,,0,,America/New_York,,,0,
4150893,920,,SHREWSBURY ST + HILL ST,,42.26345,-71.790007,,,0,,America/New_York,,,0,
4150894,919,,SHREWSBURY ST + MULBERRY ST,,42.26244,-71.792478,,,0,,America/New_York,,,0,
4150895,1250,,SHREWSBURY ST + LEO TUORO WAY,,42.262695,-71.792017,,,0,,America/New_York,,,0,
4150896,940,,SHREWSBURY ST + HILL ST,,42.263505,-71.790245,,,0,,America/New_York,,,0,
4150897,939,,SHREWSBURY ST + EAST CENTRAL ST,,42.264332,-71.788678,,,0,,America/New_York,,,0,
4150898,938,,SHREWSBURY ST + COLUMBO PARK,,42.266255,-71.784968,,,0,,America/New_York,,,0,
4150899,1268,,SHREWSBURY ST + WAITE ST,,42.267367,-71.782798,,,0,,America/New_York,,,0,
4150900,936,,SHREWSBURY ST + MARSHALL ST,,42.26879,-71.78012,,,0,,America/New_York,,,0,
4150901,935,,SHREWSBURY ST + LARAIA ST,,42.269735,-71.7783,,,0,,America/New_York,,,0,
4150902,934,,SHREWSBURY ST + IMPERIAL RD,,42.270593,-71.776583,,,0,,America/New_York,,,0,
4150903,933,,SHREWSBURY ST + PRENTICE ST,,42.271373,-71.774978,,,0,,America/New_York,,,0,
4150904,932,,SHREWSBURY ST + DANIELS ST,,42.27278,-71.772022,,,0,,America/New_York,,,0,
4150905,931,,SHREWSBURY ST + AITCHISON ST,,42.273343,-71.77083,,,0,,America/New_York,,,0,
4150906,1149,,SOUTH RD + UNIVERSITY OF MASSACHUSETTS,,42.275847,-71.761515,,,0,,America/New_York,,,0,
4150907,4640,,BOSTON TRPK + N. QUINSIGAMOND AVE,,42.27456,-71.752518,,,0,,America/New_York,,,0,
4150908,4635,,SHREWSBURY TOWERS,,42.276888,-71.751828,,,0,,America/New_York,,,0,
4150909,4630,,BOSTON TRPK + WHITE CITY,,42.274727,-71.750993,,,0,,America/New_York,,,0,
4150910,4625,,BOSTON TRPK + HARRINGTON AVE,,42.275243,-71.744873,,,0,,America/New_York,,,0,
4150911,4615,,MAPLE ST + VAN NESS AVE,,42.282332,-71.733215,,,0,,America/New_York,,,0,
4150912,4610,,MAPLE ST + OAK ST,,42.285527,-71.728217,,,0,,America/New_York,,,0,
4150913,4605,,MAPLE ST + BRIGHTSIDE AVE,,42.290835,-71.72166,,,0,,America/New_York,,,0,
4150914,4600,,MAIN ST + MAPLE ST,,42.296558,-71.714897,,,0,,America/New_York,,,0,
4150915,4595,,MAIN ST + BOYLESTON ST,,42.296748,-71.71376,,,0,,America/New_York,,,0,
4150916,4590,,MAIN ST + JOB CUSHING RD,,42.296613,-71.709858,,,0,,America/New_York,,,0,
4150917,4585,,MAIN ST + HOLMAN ST,,42.296232,-71.706242,,,0,,America/New_York,,,0,
4150918,4580,,SOUTH ST + MAIN ST,,42.295158,-71.703302,,,0,,America/New_York,,,0,
4150919,4575,,JULIO DR + SHREWSBURY COMMONS,,42.292091,-71.703857,,,0,,America/New_York,,,0,
4150920,1264,,PULLMAN ST + PRICECHOPPER,,42.324072,-71.797867,,,0,,America/New_York,,,0,
4150921,753,,MOUNTAIN ST WEST + MALDEN ST,,42.323802,-71.794592,,,0,,America/New_York,,,0,
4150922,750,,MOUNTAIN ST EAST + BURNCOAT ST,,42.32369,-71.792263,,,0,,America/New_York,,,0,
4150923,69,,BURNCOAT ST + ASCADILLA RD,,42.313763,-71.789482,,,0,,America/New_York,,,0,
4150924,68,,BURNCOAT ST + INWOOD RD,,42.313072,-71.789212,,,0,,America/New_York,,,0,
4150925,67,,BURNCOAT ST + QUINAPOXET LN,,42.31169,-71.789022,,,0,,America/New_York,,,0,
4150926,66,,BURNCOAT ST + FAIRHAVEN RD,,42.309218,-71.789005,,,0,,America/New_York,,,0,
4150927,65,,BURNCOAT ST + CHATAM VILLAGE RD,,42.308042,-71.788982,,,0,,America/New_York,,,0,
4150928,64,,BURNCOAT ST + CLARK ST,,42.30681,-71.789013,,,0,,America/New_York,,,0,
4150929,63,,BURNCOAT ST + DEVENS RD,,42.30576,-71.789203,,,0,,America/New_York,,,0,
4150930,61,,BURNCOAT ST + COVENTRY RD,,42.304267,-71.789458,,,0,,America/New_York,,,0,
4150931,59,,BURNCOAT ST + MONTEREY RD,,42.303368,-71.789522,,,0,,America/New_York,,,0,
4150932,58,,BURNCOAT ST + THORNDYKE RD,,42.302677,-71.78949,,,0,,America/New_York,,,0,
4150933,56,,BURNCOAT ST + 184 BURNCOAT ST,,42.298862,-71.789505,,,0,,America/New_York,,,0,
4150934,55,,BURNCOAT ST + BURNCOAT HIGH SCHOOL,,42.29651,-71.789743,,,0,,America/New_York,,,0,
4150935,54,,BURNCOAT ST + DAVIDSON RD,,42.294253,-71.790363,,,0,,America/New_York,,,0,
4150936,53,,BURNCOAT ST + PARKVIEW DR,,42.293498,-71.790602,,,0,,America/New_York,,,0,
4150937,51,,BURNCOAT ST + WAWECUS RD,,42.291948,-71.790492,,,0,,America/New_York,,,0,
4150938,50,,BURNCOAT ST + RANKIN ST,,42.289167,-71.790555,,,0,,America/New_York,,,0,
4150939,49,,BURNCOAT ST + MELVILLE ST,,42.288007,-71.790698,,,0,,America/New_York,,,0,
4150940,525,,LINCOLN ST + BRITTAN LN,,42.286067,-71.790793,,,0,,America/New_York,,,0,
4150941,523,,LINCOLN ST + MCKINLEY RD,,42.283118,-71.792048,,,0,,America/New_York,,,0,
4150942,522,,LINCOLN ST + GREENHILL PKWY,,42.281568,-71.792653,,,0,,America/New_York,,,0,
4150943,521,,LINCOLN ST + FORBES ST,,42.279368,-71.793558,,,0,,America/New_York,,,0,
4150944,520,,LINCOLN ST + FORESDALE RD,,42.277683,-71.794505,,,0,,America/New_York,,,0,
4150945,519,,LINCOLN ST + CATHERINE ST,,42.276443,-71.795323,,,0,,America/New_York,,,0,
4150946,1232,,SUMMER ST + KENDALL ST,,42.273702,-71.796722,,,0,,America/New_York,,,0,
4150947,1015,,SUMMER ST + PROSPECT ST,,42.268257,-71.795943,,,0,,America/New_York,,,0,
4150948,1013,,SUMMER ST + EAST CENTRAL ST,,42.26705,-71.795593,,,0,,America/New_York,,,0,
4150949,572,,MAIN ST + FOSTER ST,,42.265563,-71.801243,,,0,,America/New_York,,,0,
4150950,1265,,BROOK ST + HIGGINS ST,,42.319407,-71.800847,,,0,,America/New_York,,,0,
4150951,1189,,CINEMAS NORTH,,42.316783,-71.802213,,,0,,America/New_York,,,0,
4150952,621,,MAIN ST + CITY HALL,,42.262813,-71.802437,,,0,,America/New_York,,,0,
4150953,639,,MAIN ST + MAPLE ST,,42.265198,-71.801482,,,0,,America/New_York,,,0,
4150954,638,,MAIN ST + SUDBURY ST,,42.266542,-71.801005,,,0,,America/New_York,,,0,
4150955,1014,,SUMMER ST + HAMPTON INN,,42.267065,-71.795752,,,0,,America/New_York,,,0,
4150956,1016,,SUMMER ST + THOMAS ST,,42.26829,-71.796007,,,0,,America/New_York,,,0,
4150957,1192,,SUMMER ST + 51 SUMMER ST,,42.269402,-71.79681,,,0,,America/New_York,,,0,
4150958,1266,,SUMMER ST + KENDALL ST,,42.273725,-71.79677,,,0,,America/New_York,,,0,
4150959,550,,LINCOLN ST + CRESCENT ST,,42.275918,-71.795783,,,0,,America/New_York,,,0,
4150960,555,,LINCOLN ST + FREDERICK ST,,42.277675,-71.794615,,,0,,America/New_York,,,0,
4150961,549,,LINCOLN ST + PERKINS ST,,42.278915,-71.793868,,,0,,America/New_York,,,0,
4150962,554,,LINCOLN ST + GREENHILL PKWY,,42.281355,-71.79286,,,0,,America/New_York,,,0,
4150963,548,,LINCOLN ST + HARLOW ST,,42.283008,-71.792192,,,0,,America/New_York,,,0,
4150964,547,,LINCOLN ST + NORTON ST,,42.285678,-71.791118,,,0,,America/New_York,,,0,
4150965,103,,BURNCOAT ST + 16 BURNCOAT ST,,42.287697,-71.790753,,,0,,America/New_York,,,0,
4150966,102,,BURNCOAT ST + RANKIN ST,,42.288618,-71.790745,,,0,,America/New_York,,,0,
4150967,101,,BURNCOAT ST + FAIRHAVEN,,42.292092,-71.79057,,,0,,America/New_York,,,0,
4150968,99,,BURNCOAT ST + CLEARVIEW AVE,,42.294335,-71.790458,,,0,,America/New_York,,,0,
4150969,98,,BURNCOAT ST + RANDOLPH RD,,42.296573,-71.78984,,,0,,America/New_York,,,0,
4150970,97,,BURNCOAT ST + BURNCOAT HIGH SCHOOL,,42.299062,-71.789608,,,0,,America/New_York,,,0,
4150971,96,,BURNCOAT ST + REXAME RD,,42.299912,-71.789498,,,0,,America/New_York,,,0,
4150972,94,,BURNCOAT ST + THORNDYKE RD,,42.30224,-71.789577,,,0,,America/New_York,,,0,
4150973,93,,BURNCOAT ST + MONTEREY RD,,42.30305,-71.789608,,,0,,America/New_York,,,0,
4150974,90,,BURNCOAT ST + DEVENS RD,,42.305713,-71.78933,,,0,,America/New_York,,,0,
4150975,89,,BURNCOAT ST + DOROTHY AVE,,42.306428,-71.789203,,,0,,America/New_York,,,0,
4150976,88,,BURNCOAT ST + CHATAM VILLAGE RD,,42.307953,-71.789108,,,0,,America/New_York,,,0,
4150977,87,,BURNCOAT ST + FAIRHAVEN RD,,42.309098,-71.789108,,,0,,America/New_York,,,0,
4150978,86,,BURNCOAT ST + FALES ST,,42.311737,-71.789157,,,0,,America/New_York,,,0,
4150979,84,,BURNCOAT ST + ASSUMPTION AVE,,42.313938,-71.789633,,,0,,America/New_York,,,0,
4150980,764,,MOUNTAIN ST WEST + MALDEN ST,,42.323762,-71.79456,,,0,,America/New_York,,,0,
4150981,763,,MOUNTAIN ST WEST + PULLMAN ST,,42.324588,-71.797207,,,0,,America/New_York,,,0,
4150982,1191,,PULLMAN ST + PRICECHOPPER,,42.323897,-71.797907,,,0,,America/New_York,,,0,
4150983,352,,GREENWOOD ST + RT 20,,42.212538,-71.795768,,,0,,America/New_York,,,0,
4150984,351,,GREENWOOD ST + FAIR PLAZA,,42.213597,-71.795943,,,0,,America/New_York,,,0,
4150985,350,,GREENWOOD ST + ARNOLD RD,,42.215138,-71.796007,,,0,,America/New_York,,,0,
4150986,349,,GREENWOOD ST + 328A GREENWOOD ST,,42.215933,-71.79615,,,0,,America/New_York,,,0,
4150987,348,,GREENWOOD ST + RYBERG TER,,42.218158,-71.796713,,,0,,America/New_York,,,0,
4150988,347,,GREENWOOD ST + CONWAY ST,,42.219668,-71.796762,,,0,,America/New_York,,,0,
4150989,346,,GREENWOOD ST + SOUTHOLD RD,,42.220502,-71.79677,,,0,,America/New_York,,,0,
4150990,977,,SPOFFORD RD + GREENWOOD ST,,42.221432,-71.796865,,,0,,America/New_York,,,0,
4150991,975,,SPOFFORD RD + BROUGHTON RD,,42.22078,-71.79994,,,0,,America/New_York,,,0,
4150992,1034,,UPLAND GARDEN DR + 48 UPLAND GARDEN DR,,42.220622,-71.803468,,,0,,America/New_York,,,0,
4150993,1035,,UPLAND GARDEN DR + 36 UPLAND GARDEN DR,,42.221575,-71.803723,,,0,,America/New_York,,,0,
4150994,1033,,UPLAND GARDEN DR + 10 UPLAND GARDEN DR,,42.223148,-71.80474,,,0,,America/New_York,,,0,
4150995,1038,,UPLAND ST + UPLAND GARDEN DR,,42.224198,-71.804622,,,0,,America/New_York,,,0,
4150996,1037,,UPLAND ST + MALLARD RD,,42.223403,-71.799495,,,0,,America/New_York,,,0,
4150997,1036,,UPLAND ST + EMMANUEL,,42.223697,-71.797238,,,0,,America/New_York,,,0,
4150998,344,,GREENWOOD ST + UPLAND ST,,42.223777,-71.796102,,,0,,America/New_York,,,0,
4150999,343,,GREENWOOD ST + 192 GREENWOOD ST,,42.224738,-71.795037,,,0,,America/New_York,,,0,
4151000,342,,GREENWOOD ST + 159 GREENWOOD ST,,42.226088,-71.79371,,,0,,America/New_York,,,0,
4151001,341,,GREENWOOD ST + 137 GREENWOOD ST,,42.227202,-71.793058,,,0,,America/New_York,,,0,
4151002,340,,GREENWOOD ST + TATMAN ST,,42.228568,-71.793002,,,0,,America/New_York,,,0,
4151003,339,,GREENWOOD ST + KOSTA ST,,42.229625,-71.79305,,,0,,America/New_York,,,0,
4151004,338,,GREENWOOD ST + EKMAN ST,,42.231175,-71.793543,,,0,,America/New_York,,,0,
4151005,41,,BLACKSTONE RIVER RD + WHIPPLE ST,,42.2322,-71.79433,,,0,,America/New_York,,,0,
4151006,40,,BLACKSTONE RIVER RD + FALMOUTH ST,,42.233552,-71.795355,,,0,,America/New_York,,,0,
4151007,38,,BLACKSTONE RIVER RD + MCKEON RD,,42.234887,-71.796213,,,0,,America/New_York,,,0,
4151008,885,,PROVIDENCE ST + MILLBURY ST,,42.237987,-71.792177,,,0,,America/New_York,,,0,
4151009,884,,PROVIDENCE ST + DOANE ST,,42.2401,-71.791747,,,0,,America/New_York,,,0,
4151010,1050,,UPSALA ST + PROVIDENCE ST,,42.241277,-71.791508,,,0,,America/New_York,,,0,
4151011,1049,,UPSALA ST + ESTHER ST,,42.241737,-71.793527,,,0,,America/New_York,,,0,
4151012,1239,,UPSALA ST + LOUISE ST,,42.24204,-71.794925,,,0,,America/New_York,,,0,
4151013,1067,,VERNON ST + UPSALA ST,,42.242707,-71.797342,,,0,,America/New_York,,,0,
4151014,1066,,VERNON ST + CARGILL AVE,,42.243668,-71.796897,,,0,,America/New_York,,,0,
4151015,1064,,VERNON ST + WINDHAM ST,,42.244925,-71.795998,,,0,,America/New_York,,,0,
4151016,1063,,VERNON ST + EUCLID AVE,,42.245568,-71.795482,,,0,,America/New_York,,,0,
4151017,1061,,VERNON ST + VIEW ST,,42.24703,-71.794783,,,0,,America/New_York,,,0,
4151018,1060,,VERNON ST + ALPINE ST,,42.248222,-71.794727,,,0,,America/New_York,,,0,
4151019,1059,,VERNON ST + SEYMOUR ST,,42.249128,-71.794752,,,0,,America/New_York,,,0,
4151020,1058,,VERNON ST + SUFFIELD ST,,42.250153,-71.794878,,,0,,America/New_York,,,0,
4151021,1057,,VERNON ST + RICHLAND ST,,42.251147,-71.795283,,,0,,America/New_York,,,0,
4151022,1056,,VERNON ST + PATTISON ST,,42.252418,-71.796078,,,0,,America/New_York,,,0,
4151023,333,,GREEN ST + MADISON ST,,42.255565,-71.79801,,,0,,America/New_York,,,0,
4151024,332,,GREEN ST + GOLD ST,,42.25725,-71.79807,,,0,,America/New_York,,,0,
4151025,330,,GREEN ST + TEMPLE ST,,42.259302,-71.798248,,,0,,America/New_York,,,0,
4151026,239,,FOSTER ST + WALDO ST,,42.264745,-71.8006,,,0,,America/New_York,,,0,
4151027,242,,FOSTER ST + MAJOR TAYLOR BLVD,,42.26365,-71.79729,,,0,,America/New_York,,,0,
4151028,336,,GREEN ST + GODDARD ST,,42.258157,-71.798057,,,0,,America/New_York,,,0,
4151029,335,,GREEN ST + HARRISON ST,,42.256997,-71.79793,,,0,,America/New_York,,,0,
4151030,334,,GREEN ST + HARDING ST,,42.255772,-71.797842,,,0,,America/New_York,,,0,
4151031,1078,,VERNON ST + JEFFERSON ST,,42.25355,-71.79685,,,0,,America/New_York,,,0,
4151032,1077,,VERNON ST + PATTISON ST,,42.25245,-71.796055,,,0,,America/New_York,,,0,
4151033,1263,,VERNON ST + DORCHESTER ST,,42.251457,-71.79537,,,0,,America/New_York,,,0,
4151034,1075,,VERNON ST + SUFFIELD ST,,42.249763,-71.794735,,,0,,America/New_York,,,0,
4151035,1071,,VERNON ST + SYME ST,,42.246283,-71.794887,,,0,,America/New_York,,,0,
4151036,1069,,VERNON ST + WINDHAM ST,,42.244718,-71.796087,,,0,,America/New_York,,,0,
4151037,1068,,VERNON ST + AMES ST,,42.243565,-71.796888,,,0,,America/New_York,,,0,
4151038,1054,,UPSALA ST + VERNON ST,,42.242635,-71.797135,,,0,,America/New_York,,,0,
4151039,1053,,UPSALA ST + STOCKTON ST,,42.242087,-71.794807,,,0,,America/New_York,,,0,
4151040,1052,,UPSALA ST + ESTHER ST,,42.241785,-71.793463,,,0,,America/New_York,,,0,
4151041,1051,,UPSALA ST + PROVIDENCE ST,,42.241363,-71.791698,,,0,,America/New_York,,,0,
4151042,896,,PROVIDENCE ST + ASTRID AVE,,42.24068,-71.791445,,,0,,America/New_York,,,0,
4151043,905,,PROVIDENCE ST + DOANE ST,,42.2401,-71.79162,,,0,,America/New_York,,,0,
4151044,1088,,WEST BOYLSTON ST + RANDALL ST,,42.311427,-71.797842,,,0,,America/New_York,,,0,
4151045,1087,,WEST BOYLSTON ST + FALES ST,,42.310585,-71.798113,,,0,,America/New_York,,,0,
4151046,1086,,WEST BOYLSTON ST + FAIRHAVEN RD,,42.3096,-71.798438,,,0,,America/New_York,,,0,
4151047,1085,,WEST BOYLSTON ST + AIRLIE ST,,42.307898,-71.799035,,,0,,America/New_York,,,0,
4151048,1084,,WEST BOYLSTON ST + NEW BOND ST,,42.305102,-71.800488,,,0,,America/New_York,,,0,
4151049,1083,,WEST BOYLSTON ST + BOURNE ST,,42.301922,-71.800172,,,0,,America/New_York,,,0,
4151050,1082,,WEST BOYLSTON ST + BARBER AVE,,42.300985,-71.79994,,,0,,America/New_York,,,0,
4151051,1080,,WEST BOYLSTON ST + NEPONSET ST 1,,42.298965,-71.802078,,,0,,America/New_York,,,0,
4151052,259,,GOLD STAR BLVD + NEPONSET ST,,42.29771,-71.802825,,,0,,America/New_York,,,0,
4151053,258,,GOLD STAR BLVD + FROSTHOLM ST,,42.293475,-71.802437,,,0,,America/New_York,,,0,
4151054,257,,GOLD STAR BLVD + WEST BOYLSTON TER,,42.292083,-71.802698,,,0,,America/New_York,,,0,
4151055,256,,GOLD STAR BLVD + RUTHVEN AVE,,42.290772,-71.803198,,,0,,America/New_York,,,0,
4151056,255,,GOLD STAR BLVD + MILLBROOK ST,,42.289262,-71.804192,,,0,,America/New_York,,,0,
4151057,253,,GOLD STAR BLVD + CHADWICK ST,,42.288157,-71.805138,,,0,,America/New_York,,,0,
4151058,374,,GROVE ST + GLENNIE ST,,42.284017,-71.80722,,,0,,America/New_York,,,0,
4151059,373,,GROVE ST + BROOKFIELD ST,,42.282555,-71.80633,,,0,,America/New_York,,,0,
4151060,372,,GROVE ST + NORTH ST,,42.280718,-71.805257,,,0,,America/New_York,,,0,
4151061,371,,GROVE ST + CEMETERY,,42.27932,-71.804255,,,0,,America/New_York,,,0,
4151062,370,,GROVE ST + FIRE STATION,,42.27808,-71.803088,,,0,,America/New_York,,,0,
4151063,369,,GROVE ST + LANCASTER ST,,42.276443,-71.801252,,,0,,America/New_York,,,0,
4151064,368,,GROVE ST + FARADAY ST,,42.27564,-71.800663,,,0,,America/New_York,,,0,
4151065,375,,GROVE ST + 74 GROVE ST,,42.274893,-71.800528,,,0,,America/New_York,,,0,
4151066,189,,GROVE ST + CONCORD ST,,42.27394,-71.800385,,,0,,America/New_York,,,0,
4151067,386,,GROVE ST + CONCORD ST,,42.273653,-71.800417,,,0,,America/New_York,,,0,
4151068,385,,GROVE ST + FARADAY ST,,42.274988,-71.800648,,,0,,America/New_York,,,0,
4151069,384,,GROVE ST + 106 GROVE ST,,42.27634,-71.8013,,,0,,America/New_York,,,0,
4151070,383,,GROVE ST + FIRE STATION,,42.277723,-71.80292,,,0,,America/New_York,,,0,
4151071,382,,GROVE ST + CEMETERY,,42.279613,-71.804653,,,0,,America/New_York,,,0,
4151072,378,,GROVE ST + NORTH ST,,42.280982,-71.805543,,,0,,America/New_York,,,0,
4151073,379,,GROVE ST + CHADWICK ST,,42.286592,-71.8073,,,0,,America/New_York,,,0,
4151074,1134,,WEST BOYLSTON ST + GROVE ST,,42.28873,-71.807372,,,0,,America/New_York,,,0,
4151075,1133,,WEST BOYLSTON ST + BARNES AVE,,42.290478,-71.806353,,,0,,America/New_York,,,0,
4151076,1132,,WEST BOYLSTON ST + HUNTINGTON AVE,,42.291503,-71.805607,,,0,,America/New_York,,,0,
4151077,1131,,WEST BOYLSTON ST + BOARDMAN ST,,42.293697,-71.804352,,,0,,America/New_York,,,0,
4151078,1130,,WEST BOYLSTON ST + NEPONSET ST,,42.299443,-71.802532,,,0,,America/New_York,,,0,
4151079,1129,,WEST BOYLSTON ST + ERICKSON ST,,42.301023,-71.800172,,,0,,America/New_York,,,0,
4151080,1128,,WEST BOYLSTON ST + BOURNE ST,,42.302073,-71.800537,,,0,,America/New_York,,,0,
4151081,1127,,WEST BOYLSTON ST + ANDOVER ST,,42.3029,-71.801022,,,0,,America/New_York,,,0,
4151082,1126,,WEST BOYLSTON ST + NEW BOND ST,,42.304553,-71.800887,,,0,,America/New_York,,,0,
4151083,1125,,WEST BOYLSTON ST + SUMMERHILL AVE,,42.306658,-71.799885,,,0,,America/New_York,,,0,
4151084,1124,,WEST BOYLSTON ST + BROOKS ST,,42.30867,-71.798852,,,0,,America/New_York,,,0,
4151085,1123,,WEST BOYLSTON ST + FRANCIS ST,,42.309853,-71.798438,,,0,,America/New_York,,,0,
4151086,1122,,WEST BOYLSTON ST + FALES ST,,42.310497,-71.798223,,,0,,America/New_York,,,0,
4151087,1121,,WEST BOYLSTON ST + RANDALL ST,,42.311427,-71.79793,,,0,,America/New_York,,,0,
4151088,1120,,WEST BOYLSTON ST + ASSUMPTION AVE,,42.312508,-71.797588,,,0,,America/New_York,,,0,
4151089,1119,,WEST BOYLSTON ST + QUINSIGMUND COMMUNITY COLLEGE,,42.315012,-71.796817,,,0,,America/New_York,,,0,
4151090,1118,,WEST BOYLSTON ST + MARLAND RD,,42.316863,-71.796317,,,0,,America/New_York,,,0,
4151091,1117,,WEST BOYLSTON ST + CLYDE RD,,42.318293,-71.795927,,,0,,America/New_York,,,0,
4151092,1116,,WEST BOYLSTON ST + VOLKMAN RD,,42.320828,-71.794973,,,0,,America/New_York,,,0,
4151093,1115,,WEST BOYLSTON ST + 829 WEST BOYLSTON ST,,42.322053,-71.794465,,,0,,America/New_York,,,0,
4151094,1114,,WEST BOYLSTON ST + VENDORA RD,,42.323205,-71.794012,,,0,,America/New_York,,,0,
4151095,1113,,WEST BOYLSTON ST + MALDEN ST,,42.324723,-71.793233,,,0,,America/New_York,,,0,
4151096,1112,,WEST BOYLSTON ST + REYNOLDS ST,,42.325573,-71.79274,,,0,,America/New_York,,,0,
4151097,1111,,WEST BOYLSTON ST + STOP & SHOP,,42.327202,-71.791938,,,0,,America/New_York,,,0,
4151098,1110,,WEST BOYLSTON ST + DIXFIELD RD,,42.328212,-71.791595,,,0,,America/New_York,,,0,
4151099,1109,,WEST BOYLSTON ST + COTUIT ST,,42.330072,-71.79119,,,0,,America/New_York,,,0,
4151100,1108,,WEST BOYLSTON ST + APTHROP ST,,42.331447,-71.79061,,,0,,America/New_York,,,0,
4151101,1107,,WEST BOYLSTON ST + KENNEBEC ST,,42.333353,-71.789823,,,0,,America/New_York,,,0,
4151102,1106,,WEST BOYLSTON ST + WILBUR ST,,42.334498,-71.789347,,,0,,America/New_York,,,0,
4151103,1105,,WEST BOYLSTON ST + MEOLA AVE,,42.335572,-71.789005,,,0,,America/New_York,,,0,
4151104,5040,,WEST BOYLSTON ST + 326 WEST BOYLSTON ST,,42.341452,-71.78817,,,0,,America/New_York,,,0,
4151105,5035,,WEST BOYLSTON ST + WOODLAND ST,,42.345052,-71.787073,,,0,,America/New_York,,,0,
4151106,5025,,WALMART WEST BOYLESTON,,42.355472,-71.782878,,,0,,America/New_York,,,0,
4151107,149,,CHANDLER ST + HADWEN RD,,42.266755,-71.838477,,,0,,America/New_York,,,0,
4151108,147,,CHANDLER ST + PERROT ST,,42.266238,-71.837483,,,0,,America/New_York,,,0,
4151109,145,,CHANDLER ST + FISKE ST,,42.264753,-71.834877,,,0,,America/New_York,,,0,
4151110,487,,JUNE ST + CHANDLER ST,,42.264148,-71.833628,,,0,,America/New_York,,,0,
4151111,486,,JUNE ST + EDGEWOOD ST,,42.26558,-71.831578,,,0,,America/New_York,,,0,
4151112,485,,JUNE ST + HADWEN RD,,42.266438,-71.830402,,,0,,America/New_York,,,0,
4151113,484,,JUNE ST + NEVADA ST,,42.267558,-71.828782,,,0,,America/New_York,,,0,
4151114,482,,JUNE ST + PLEASANT ST,,42.269315,-71.826247,,,0,,America/New_York,,,0,
4151115,448,,HIGHLAND ST + NEWTON SQ,,42.269927,-71.824617,,,0,,America/New_York,,,0,
4151116,447,,HIGHLAND ST + SUBURBAN RD,,42.270093,-71.821723,,,0,,America/New_York,,,0,
4151117,446,,HIGHLAND ST + HAVILAND ST,,42.270188,-71.819602,,,0,,America/New_York,,,0,
4151118,445,,HIGHLAND ST + GERMAIN ST,,42.270252,-71.818132,,,0,,America/New_York,,,0,
4151119,444,,HIGHLAND ST + PARK AVE,,42.270395,-71.815755,,,0,,America/New_York,,,0,
4151120,443,,HIGHLAND ST + DOVER ST,,42.27057,-71.813483,,,0,,America/New_York,,,0,
4151121,442,,HIGHLAND ST + EINHORN RD,,42.270722,-71.81167,,,0,,America/New_York,,,0,
4151122,441,,HIGHLAND ST + SCHUSSLER RD,,42.270928,-71.808953,,,0,,America/New_York,,,0,
4151123,440,,HIGHLAND ST + NORTH ASHLAND ST,,42.271078,-71.80714,,,0,,America/New_York,,,0,
4151124,439,,HIGHLAND ST + DEAN ST,,42.271302,-71.80447,,,0,,America/New_York,,,0,
4151125,438,,HIGHLAND ST + HARVARD ST,,42.2715,-71.802093,,,0,,America/New_York,,,0,
4151126,433,,HARVARD ST + DIX ST,,42.268965,-71.802397,,,0,,America/New_York,,,0,
4151127,179,,CHESTNUT ST + BOWDOIN ST,,42.267423,-71.803468,,,0,,America/New_York,,,0,
4151128,178,,CHESTNUT ST + WALNUT ST,,42.266405,-71.803755,,,0,,America/New_York,,,0,
4151129,556,,LINDEN ST + 11 LINDEN ST,,42.264705,-71.805853,,,0,,America/New_York,,,0,
4151130,558,,LINDEN ST + CEDAR ST,,42.26631,-71.805225,,,0,,America/New_York,,,0,
4151131,557,,LINDEN ST + WILLIAM ST,,42.266898,-71.804598,,,0,,America/New_York,,,0,
4151132,515,,LANCASTER ST + DIX ST,,42.269418,-71.803223,,,0,,America/New_York,,,0,
4151133,461,,HIGHLAND ST + GOULDING ST,,42.27127,-71.804518,,,0,,America/New_York,,,0,
4151134,460,,HIGHLAND ST + NORTH ASHLAND ST,,42.271118,-71.80637,,,0,,America/New_York,,,0,
4151135,459,,HIGHLAND ST + WEST ST,,42.270992,-71.808095,,,0,,America/New_York,,,0,
4151136,458,,HIGHLAND ST + SEVER ST,,42.270713,-71.811337,,,0,,America/New_York,,,0,
4151137,456,,HIGHLAND ST + SOMERSET ST,,42.270547,-71.813618,,,0,,America/New_York,,,0,
4151138,455,,HIGHLAND ST + PARK AVE,,42.270403,-71.815318,,,0,,America/New_York,,,0,
4151139,450,,HIGHLAND ST + GERMAIN ST,,42.270212,-71.81818,,,0,,America/New_York,,,0,
4151140,449,,HIGHLAND ST + HAVILAND ST,,42.270148,-71.820047,,,0,,America/New_York,,,0,
4151141,453,,HIGHLAND ST + SUBURBAN RD,,42.270077,-71.821867,,,0,,America/New_York,,,0,
4151142,451,,HIGHLAND ST + NEWTON SQ,,42.26991,-71.824132,,,0,,America/New_York,,,0,
4151143,497,,JUNE ST + PLEASANT ST,,42.26956,-71.825802,,,0,,America/New_York,,,0,
4151144,3012,,WRTA GARAGE,,42.281895,-71.808515,,,0,,America/New_York,,,0,
4151145,3011,,PARK AVE + RUMFORD,,42.279853,-71.808475,,,0,,America/New_York,,,0,
4151146,3010,,PARK AVE + SALISBURY ST,,42.278453,-71.808707,,,0,,America/New_York,,,0,
4151147,3004,,MAJ TAYLOR BLVD + THOMAS ST,,42.268058,-71.79839,,,0,,America/New_York,,,0,
4151148,3002,,MAJ TAYLOR BLVD + DCU,,42.266477,-71.797993,,,0,,America/New_York,,,0,
4151149,3001,,MAJ TAYLOR BLVD + ST VS,,42.264387,-71.797818,,,0,,America/New_York,,,0,
4151150,3047,,PARK AVE + SALISBURY ST,,42.279503,-71.808603,,,0,,America/New_York,,,0,
4151151,3046,,PARK AVE + WACONAH,,42.280472,-71.808635,,,0,,America/New_York,,,0,
4151152,3045,,WRTA GARAGE,,42.281815,-71.808682,,,0,,America/New_York,,,0,
4151153,3044,,PARK AVE + GROVE ST,,42.284128,-71.808277,,,0,,America/New_York,,,0,
4151154,3075,,MECHANIC ST + CHARLTON ST,,42.078818,-72.027335,,,0,,America/New_York,,,0,
4151155,3074,,MECHANIC ST + RANDOLPH ST,,42.08144,-72.027908,,,0,,America/New_York,,,0,
4151156,3073,,WORCESTER RD + VINTON ST,,42.090603,-72.022805,,,0,,America/New_York,,,0,
4151157,3072,,SOUTHBRIDGE RD + ENTERING SOUTHBRIDGE,,42.101635,-72.017783,,,0,,America/New_York,,,0,
4151158,3071,,SOUTHBRIDGE RD + BERRY CORNER RD,,42.126303,-72.005942,,,0,,America/New_York,,,0,
4151159,3070,,SOUTHBRIDGE RD + WORCESTER RD,,42.14374,-71.99488,,,0,,America/New_York,,,0,
4151160,3069,,WORCESTER RD + STAFFORD ST,,42.145218,-71.990477,,,0,,America/New_York,,,0,
4151161,3064,,WORCESTER RD + NORTHSIDE RD,,42.144375,-71.963185,,,0,,America/New_York,,,0,
4151162,3063,,WORCESTER RD + CARROLL HILL RD,,42.147387,-71.941013,,,0,,America/New_York,,,0,
4151163,3062,,WORCESTER RD + OXBOW RD,,42.150303,-71.925468,,,0,,America/New_York,,,0,
4151164,3061,,SOUTHBRIDGE RD + ENTERING CHARLTON,,42.154858,-71.909605,,,0,,America/New_York,,,0,
4151165,3060,,SOUTHBRIDGE RD + LEICESTER ST,,42.167318,-71.89464,,,0,,America/New_York,,,0,
4151166,3059,,SOUTHBRIDGE RD + TURNER RD,,42.168273,-71.88632,,,0,,America/New_York,,,0,
4151167,3101,,FRANCIS J MCGRATH BLVD + MYRTLE ST,,42.25857,-71.800577,,,0,,America/New_York,,,0,
4151168,3099,,SOUTHBRIDGE RD + TURNER RD,,42.168423,-71.885485,,,0,,America/New_York,,,0,
4151169,3098,,SOUTHBRIDGE RD + LEICESTER ST,,42.167137,-71.894593,,,0,,America/New_York,,,0,
4151170,3097,,SOUTHBRIDGE RD + ENTERING OXFORD,,42.154873,-71.909272,,,0,,America/New_York,,,0,
4151171,3096,,WORCESTER RD + BAY PATH RD,,42.154158,-71.914222,,,0,,America/New_York,,,0,
4151172,3095,,WORCESTER RD + RICHARDSON CORNER RD,,42.150208,-71.92507,,,0,,America/New_York,,,0,
4151173,3094,,WORCESTER RD + OLD WORCESTER RD,,42.147102,-71.940075,,,0,,America/New_York,,,0,
4151174,3093,,WORCESTER RD + L STEVENS RD,,42.144208,-71.963202,,,0,,America/New_York,,,0,
4151175,3088,,WORCESTER RD + CARPENTER HILL RD,,42.145043,-71.990603,,,0,,America/New_York,,,0,
4151176,3087,,SOUTHBRIDGE RD + WORCESTER RD,,42.143715,-71.994657,,,0,,America/New_York,,,0,
4151177,3086,,SOUTHBRIDGE RD + SNAKE HILL RD,,42.126763,-72.005592,,,0,,America/New_York,,,0,
4151178,3085,,WORCESTER RD + ENTERING CHARLTON,,42.101753,-72.017648,,,0,,America/New_York,,,0,
4151179,3084,,WORCESTER RD + VINTON ST,,42.090675,-72.022678,,,0,,America/New_York,,,0,
4151180,3083,,CENTRAL ST + MORTON ST,,42.080312,-72.028957,,,0,,America/New_York,,,0,
4151181,3082,,CENTRAL ST + CHARLTON ST,,42.078738,-72.030125,,,0,,America/New_York,,,0,
4151182,3081,,CENTRAL ST + HOOK ST,,42.077125,-72.032192,,,0,,America/New_York,,,0,
4151183,3079,,DOWNTOWN SOUTHBRIDGE,,42.074955,-72.033392,,,0,,America/New_York,,,0,
4151184,3078,,MAIN ST + MAPLE ST,,42.073335,-72.028638,,,0,,America/New_York,,,0,
4151185,3077,,MECHANIC ST + CRYSTAL ST,,42.073723,-72.026422,,,0,,America/New_York,,,0,
4160834,5551,,Nichols College,,42.043378,-71.9320623625128,,,0,,America/New_York,,,0,
